{"result": [{"detail": 1, "address": "北京市石景山区古城南街与石景山路交叉口东150米", "uid": "e4f2ea555d67f8f796ca0751", "detail_info": {"navi_location": {"lat": 39.913368117851, "lng": 116.19475509743}, "image_num": "30", "type": "house", "detail_url": "http://api.map.baidu.com/place/detail?uid=e4f2ea555d67f8f796ca0751&output=html&source=placeapi_v2", "tag": "房地产;住宅区", "price": "32141.84", "overall_rating": "4.0"}, "street_id": "e4f2ea555d67f8f796ca0751", "location": {"lat": 39.912676, "lng": 116.196243}, "name": "八角街道古城南里社区"}, {"detail": 1, "address": "南胡同附近", "uid": "4cf8d24e3b28c4e49cf779dd", "detail_info": {"navi_location": {"lat": 39.913616697574, "lng": 116.18996687753}, "image_num": "23", "type": "house", "detail_url": "http://api.map.baidu.com/place/detail?uid=4cf8d24e3b28c4e49cf779dd&output=html&source=placeapi_v2", "tag": "房地产;住宅区", "price": "30552.0", "overall_rating": "5"}, "street_id": "4cf8d24e3b28c4e49cf779dd", "location": {"lat": 39.914211, "lng": 116.189849}, "name": "首钢十万平居民小区"}, {"detail": 1, "address": "古城大街75号", "uid": "e86f3e6c95851281ad080fef", "detail_info": {"navi_location": {"lat": 39.914758742955, "lng": 116.19277889627}, "type": "house", "detail_url": "http://api.map.baidu.com/place/detail?uid=e86f3e6c95851281ad080fef&output=html&source=placeapi_v2", "image_num": "2", "tag": "房地产;住宅区"}, "street_id": "e86f3e6c95851281ad080fef", "location": {"lat": 39.914864, "lng": 116.192316}, "name": "曦景长安1号楼"}, {"detail": 1, "address": "古城大街75号", "uid": "75036835996439af5e0d02dd", "detail_info": {"navi_location": {"lat": 39.914538495872, "lng": 116.19309391584}, "image_num": "77", "type": "house", "detail_url": "http://api.map.baidu.com/place/detail?uid=75036835996439af5e0d02dd&output=html&source=placeapi_v2", "tag": "房地产;住宅区", "price": "40000.0", "overall_rating": "5"}, "street_id": "75036835996439af5e0d02dd", "location": {"lat": 39.91429, "lng": 116.192461}, "name": "曦景长安小区"}, {"detail": 1, "address": "北京市石景山区古城南街59号", "uid": "365241f844e221539cec2bd7", "detail_info": {"navi_location": {"lat": 39.906022288679, "lng": 116.19571611095}, "type": "house", "detail_url": "http://api.map.baidu.com/place/detail?uid=365241f844e221539cec2bd7&output=html&source=placeapi_v2", "image_num": "1", "tag": "房地产;住宅区"}, "street_id": "365241f844e221539cec2bd7", "location": {"lat": 39.905419, "lng": 116.196763}, "name": "盛安公寓"}, {"detail": 1, "address": "石景山区石景山路古城南里小区", "uid": "dc0f0adc2aea495cf9221397", "detail_info": {"navi_location": {"lat": 39.913348160576, "lng": 116.19475310409}, "service_rating": "0", "environment_rating": "0", "image_num": "1", "type": "life", "comment_num": "0", "detail_url": "http://api.map.baidu.com/place/detail?uid=dc0f0adc2aea495cf9221397&output=html&source=placeapi_v2", "tag": "交通设施;停车场", "price": "１元／２小时；１５０元／月；１６００元／年"}, "street_id": "dc0f0adc2aea495cf9221397", "location": {"lat": 39.913276, "lng": 116.194791}, "name": "古城南里小区-停车场"}, {"detail": 1, "address": "石景山区石景山路古城南里小区", "uid": "67452ee89870bc764151c0e4", "detail_info": {"navi_location": {"lat": 39.912760217802, "lng": 116.19481500722}, "service_rating": "0", "environment_rating": "0", "image_num": "1", "type": "life", "detail_url": "http://api.map.baidu.com/place/detail?uid=67452ee89870bc764151c0e4&output=html&source=placeapi_v2", "tag": "交通设施;停车场", "price": "2元/15分钟(07:00-21:00),1元/2小时(21:00-07:00)"}, "street_id": "67452ee89870bc764151c0e4", "location": {"lat": 39.91276, "lng": 116.194815}, "name": "古城南里小区-地面停车场"}, {"detail": 1, "address": "南胡同与石景山路交叉口东150米", "uid": "497e4dc336c2b399c61b75f5", "detail_info": {"type": "hotel", "checkin_num": "0", "hygiene_rating": "0", "favorite_num": "0", "overall_rating": "2.1", "service_rating": "0", "comment_num": "2", "image_num": "1", "tag": "酒店;公寓式酒店", "facility_rating": "0", "detail_url": "http://api.map.baidu.com/place/detail?uid=497e4dc336c2b399c61b75f5&output=html&source=placeapi_v2", "price": "0"}, "street_id": "497e4dc336c2b399c61b75f5", "telephone": "13718352234", "location": {"lat": 39.913909, "lng": 116.18956}, "name": "北京京隆短租公寓(十万平小区店)"}, {"detail": 1, "address": "古城东街与石景山路交叉口西南100米", "uid": "2848ffd696c08a0f48cc4add", "detail_info": {"navi_location": {"lat": 39.912334335456, "lng": 116.20109113005}, "image_num": "64", "type": "house", "detail_url": "http://api.map.baidu.com/place/detail?uid=2848ffd696c08a0f48cc4add&output=html&source=placeapi_v2", "tag": "房地产;住宅区", "price": "31326.0", "overall_rating": "4.0"}, "street_id": "2848ffd696c08a0f48cc4add", "location": {"lat": 39.912562, "lng": 116.20058}, "name": "长安家园"}, {"detail": 1, "address": "八角南里2栋", "uid": "6de1e3a5ad22ecb717b54ba9", "detail_info": {"navi_location": {"lat": 39.91260014993, "lng": 116.20258681861}, "type": "house", "detail_url": "http://api.map.baidu.com/place/detail?uid=6de1e3a5ad22ecb717b54ba9&output=html&source=placeapi_v2", "image_num": "3", "tag": "房地产;住宅区"}, "street_id": "6de1e3a5ad22ecb717b54ba9", "location": {"lat": 39.91238, "lng": 116.202528}, "name": "八角南里甲2号楼"}, {"detail": 1, "address": "石景山路", "uid": "588723f3b43e36aa9ef77958", "detail_info": {"navi_location": {"lat": 39.91234129774, "lng": 116.20109313507}, "type": "house", "detail_url": "http://api.map.baidu.com/place/detail?uid=588723f3b43e36aa9ef77958&output=html&source=placeapi_v2", "image_num": "2", "tag": "房地产;宿舍"}, "street_id": "588723f3b43e36aa9ef77958", "location": {"lat": 39.912146, "lng": 116.201233}, "name": "北京巴布科克·威尔科克斯有限公司-大学生公寓"}, {"detail": 1, "address": "北京市石景山区长安家园1号楼", "uid": "3e80c5e7c2a172a99f82ea8e", "detail_info": {"navi_location": {"lat": 39.912334335456, "lng": 116.20109113005}, "type": "house", "detail_url": "http://api.map.baidu.com/place/detail?uid=3e80c5e7c2a172a99f82ea8e&output=html&source=placeapi_v2", "image_num": "2", "tag": "房地产;住宅区"}, "street_id": "3e80c5e7c2a172a99f82ea8e", "location": {"lat": 39.912391, "lng": 116.200393}, "name": "长安家园-1号楼"}, {"detail": 1, "address": "北京市石景山区八角街道建钢南里社区2号楼", "uid": "686def71198a2a5e8936ee83", "detail_info": {"navi_location": {"lat": 39.910213136761, "lng": 116.20688531468}, "type": "house", "detail_url": "http://api.map.baidu.com/place/detail?uid=686def71198a2a5e8936ee83&output=html&source=placeapi_v2", "image_num": "1", "tag": "房地产;住宅区"}, "street_id": "686def71198a2a5e8936ee83", "location": {"lat": 39.910279, "lng": 116.206401}, "name": "建钢南里-2号楼"}, {"detail": 1, "address": "北京市石景山区建钢南里4号楼", "uid": "136c4cc807b160b3bd4842fa", "detail_info": {"navi_location": {"lat": 39.910610021231, "lng": 116.20688392769}, "type": "house", "detail_url": "http://api.map.baidu.com/place/detail?uid=136c4cc807b160b3bd4842fa&output=html&source=placeapi_v2", "image_num": "1", "tag": "房地产;住宅区"}, "street_id": "136c4cc807b160b3bd4842fa", "location": {"lat": 39.910531, "lng": 116.207688}, "name": "建钢南里-4号楼"}, {"detail": 1, "address": "北京市石景山区体育场西街", "uid": "57b99e0ec4687c9138221c75", "detail_info": {"navi_location": {"lat": 39.906615709943, "lng": 116.20591657752}, "image_num": "12", "type": "house", "detail_url": "http://api.map.baidu.com/place/detail?uid=57b99e0ec4687c9138221c75&output=html&source=placeapi_v2", "tag": "房地产;住宅区", "price": "50285.0", "overall_rating": "4.0"}, "street_id": "57b99e0ec4687c9138221c75", "location": {"lat": 39.90642, "lng": 116.205597}, "name": "青年公寓"}, {"detail": 1, "address": "北京市石景山区长安家园42号楼", "uid": "5493b3f3a0e5d07eafcb66e7", "detail_info": {"navi_location": {"lat": 39.913039139703, "lng": 116.20103212306}, "type": "house", "detail_url": "http://api.map.baidu.com/place/detail?uid=5493b3f3a0e5d07eafcb66e7&output=html&source=placeapi_v2", "image_num": "1", "tag": "房地产;住宅区"}, "street_id": "5493b3f3a0e5d07eafcb66e7", "location": {"lat": 39.912769, "lng": 116.200601}, "name": "长安家园-42号楼"}, {"detail": 1, "address": "北京市石景山区", "uid": "ec0e081278ac2da687420e5c", "detail_info": {"navi_location": {"lat": 39.912443679937, "lng": 116.20523620632}, "type": "house", "detail_url": "http://api.map.baidu.com/place/detail?uid=ec0e081278ac2da687420e5c&output=html&source=placeapi_v2", "image_num": "2", "tag": "房地产;住宅区"}, "street_id": "ec0e081278ac2da687420e5c", "location": {"lat": 39.912259, "lng": 116.205103}, "name": "八角南里甲3号楼"}, {"detail": 1, "address": "八角南里1栋", "uid": "62c872e5516fd699940319cc", "detail_info": {"navi_location": {"lat": 39.912813372851, "lng": 116.20350499913}, "type": "house", "detail_url": "http://api.map.baidu.com/place/detail?uid=62c872e5516fd699940319cc&output=html&source=placeapi_v2", "image_num": "1", "tag": "房地产;住宅区"}, "street_id": "62c872e5516fd699940319cc", "location": {"lat": 39.912776, "lng": 116.202768}, "name": "八角南里1栋"}, {"detail": 1, "address": "北京市石景山区京原路甲5号", "uid": "af1ae56bdc36ea114207c1c9", "detail_info": {"navi_location": {"lat": 39.908452552287, "lng": 116.21645569539}, "image_num": "60", "type": "house", "detail_url": "http://api.map.baidu.com/place/detail?uid=af1ae56bdc36ea114207c1c9&output=html&source=placeapi_v2", "tag": "房地产;住宅区", "price": "37227.0", "overall_rating": "4.0"}, "street_id": "af1ae56bdc36ea114207c1c9", "location": {"lat": 39.907807, "lng": 116.215549}, "name": "西引力"}, {"detail": 1, "address": "北京市石景山区体育场南街5号院", "uid": "fb3d4bb82c560168ca1b95da", "detail_info": {"navi_location": {"lat": 39.90798848278, "lng": 116.20967664993}, "image_num": "1", "type": "house", "detail_url": "http://api.map.baidu.com/place/detail?uid=fb3d4bb82c560168ca1b95da&output=html&source=placeapi_v2", "tag": "房地产;住宅区", "overall_rating": "4.0"}, "street_id": "fb3d4bb82c560168ca1b95da", "location": {"lat": 39.907767, "lng": 116.20872}, "name": "新都名苑"}, {"detail": 1, "address": "体育场南街5", "uid": "68014549ed2a6fb15c17c334", "detail_info": {"navi_location": {"lat": 39.907983736333, "lng": 116.20972991046}, "type": "house", "detail_url": "http://api.map.baidu.com/place/detail?uid=68014549ed2a6fb15c17c334&output=html&source=placeapi_v2", "image_num": "1", "tag": "房地产;住宅区"}, "street_id": "68014549ed2a6fb15c17c334", "location": {"lat": 39.907751, "lng": 116.208948}, "name": "体育场南街5号院"}, {"detail": 1, "address": "北京市石景山区景阳东街", "uid": "25afcf50c94f072841d63e88", "detail_info": {"navi_location": {"lat": 39.906791731919, "lng": 116.20976022468}, "type": "house", "detail_url": "http://api.map.baidu.com/place/detail?uid=25afcf50c94f072841d63e88&output=html&source=placeapi_v2", "image_num": "1", "tag": "房地产;住宅区"}, "street_id": "25afcf50c94f072841d63e88", "location": {"lat": 39.90659, "lng": 116.209083}, "name": "体育场南街7号院"}, {"detail": 1, "address": "北京市石景山区西引力2号楼", "uid": "82da299a5314cefd21f017ff", "detail_info": {"navi_location": {"lat": 39.908639593735, "lng": 116.21601890781}, "type": "house", "detail_url": "http://api.map.baidu.com/place/detail?uid=82da299a5314cefd21f017ff&output=html&source=placeapi_v2", "image_num": "1", "tag": "房地产;住宅区"}, "street_id": "82da299a5314cefd21f017ff", "location": {"lat": 39.909151, "lng": 116.216002}, "name": "西引力-2号楼"}, {"detail": 1, "address": "北京市石景山区京原路5号院3号楼", "uid": "5947d2425bfbf13f1c3894ed", "detail_info": {"navi_location": {"lat": 39.907054983771, "lng": 116.21635556487}, "type": "house", "detail_url": "http://api.map.baidu.com/place/detail?uid=5947d2425bfbf13f1c3894ed&output=html&source=placeapi_v2", "image_num": "2", "tag": "房地产;住宅区"}, "street_id": "5947d2425bfbf13f1c3894ed", "location": {"lat": 39.907058, "lng": 116.216651}, "name": "京原路5号院3号楼"}, {"detail": 1, "address": "北京市石景山区京原路5号院4号楼", "uid": "2f956eaf3b3140fa213bf250", "detail_info": {"navi_location": {"lat": 39.906962776953, "lng": 116.21751313393}, "type": "house", "detail_url": "http://api.map.baidu.com/place/detail?uid=2f956eaf3b3140fa213bf250&output=html&source=placeapi_v2", "image_num": "1", "tag": "房地产;住宅区"}, "street_id": "2f956eaf3b3140fa213bf250", "location": {"lat": 39.906987, "lng": 116.217046}, "name": "京原路5号院4号楼"}, {"detail": 1, "address": "北京市石景山区京原路5号院1号楼", "uid": "f459c654d0077b95fd0eb0bf", "detail_info": {"navi_location": {"lat": 39.906659111257, "lng": 116.21542483053}, "type": "house", "detail_url": "http://api.map.baidu.com/place/detail?uid=f459c654d0077b95fd0eb0bf&output=html&source=placeapi_v2", "image_num": "2", "tag": "房地产;住宅区"}, "street_id": "f459c654d0077b95fd0eb0bf", "location": {"lat": 39.906762, "lng": 116.215287}, "name": "京原路5号院1号楼"}, {"detail": 1, "address": "北京市石景山区京原路5号院2号楼", "uid": "d145b44d42c2de5f17b54be2", "detail_info": {"navi_location": {"lat": 39.906618665852, "lng": 116.21577407644}, "type": "house", "detail_url": "http://api.map.baidu.com/place/detail?uid=d145b44d42c2de5f17b54be2&output=html&source=placeapi_v2", "image_num": "1", "tag": "房地产;住宅区"}, "street_id": "d145b44d42c2de5f17b54be2", "location": {"lat": 39.907048, "lng": 116.215174}, "name": "京原路5号院2号楼"}, {"detail": 1, "address": "八角东街八角南里小区(南门)附近", "uid": "5195d2232a99c8a62b06ce8b", "detail_info": {"navi_location": {"lat": 39.915037695599, "lng": 116.21087568297}, "type": "house", "detail_url": "http://api.map.baidu.com/place/detail?uid=5195d2232a99c8a62b06ce8b&output=html&source=placeapi_v2", "image_num": "1", "tag": "房地产;住宅区"}, "street_id": "5195d2232a99c8a62b06ce8b", "location": {"lat": 39.914896, "lng": 116.210706}, "name": "八角南里小区22号楼"}, {"detail": 1, "address": "北京市石景山区依翠园13号楼", "uid": "9ba9ead7d0cdf72a455726d4", "detail_info": {"navi_location": {"lat": 39.905367453424, "lng": 116.22280460882}, "image_num": "77", "type": "house", "detail_url": "http://api.map.baidu.com/place/detail?uid=9ba9ead7d0cdf72a455726d4&output=html&source=placeapi_v2", "tag": "房地产;住宅区", "price": "36785.0", "overall_rating": "5.0"}, "street_id": "9ba9ead7d0cdf72a455726d4", "location": {"lat": 39.906734, "lng": 116.22345}, "name": "石景山华联依翠园小区"}, {"detail": 1, "address": "碣石坪11号", "uid": "f9fd6062e83e8a1f0f0e6bdd", "detail_info": {"navi_location": {"lat": 39.912546159868, "lng": 116.22117423642}, "image_num": "101", "type": "house", "detail_url": "http://api.map.baidu.com/place/detail?uid=f9fd6062e83e8a1f0f0e6bdd&output=html&source=placeapi_v2", "tag": "房地产;住宅区", "price": "69013.0", "overall_rating": "5"}, "street_id": "f9fd6062e83e8a1f0f0e6bdd", "location": {"lat": 39.912357, "lng": 116.222963}, "name": "时代庐峰小区"}, {"detail": 1, "address": "北京市石景山区鲁谷南路20", "uid": "b9de26b20413753736b06c41", "detail_info": {"navi_location": {"lat": 39.905330785005, "lng": 116.2258879284}, "groupon_num": "4", "image_num": "134", "type": "house", "detail_url": "http://api.map.baidu.com/place/detail?uid=b9de26b20413753736b06c41&output=html&source=placeapi_v2", "tag": "房地产;住宅区", "price": "41810.0", "overall_rating": "4.0"}, "street_id": "b9de26b20413753736b06c41", "location": {"lat": 39.905525, "lng": 116.226197}, "name": "诗景长安"}, {"detail": 1, "address": "北京市石景山区鲁谷路", "uid": "c1653405cd547579ab175add", "detail_info": {"navi_location": {"lat": 39.909304500152, "lng": 116.22441532181}, "image_num": "20", "type": "house", "detail_url": "http://api.map.baidu.com/place/detail?uid=c1653405cd547579ab175add&output=html&source=placeapi_v2", "tag": "房地产;宿舍", "price": "38399.0", "overall_rating": "4.0"}, "street_id": "c1653405cd547579ab175add", "location": {"lat": 39.908859, "lng": 116.224454}, "name": "六场宿舍"}, {"detail": 1, "address": "北京市石景山区依翠园20号楼", "uid": "c21a5d4d802aa8d64e776e96", "detail_info": {"navi_location": {"lat": 39.907485181671, "lng": 116.22752075767}, "type": "house", "detail_url": "http://api.map.baidu.com/place/detail?uid=c21a5d4d802aa8d64e776e96&output=html&source=placeapi_v2", "image_num": "2", "tag": "房地产;住宅区"}, "street_id": "c21a5d4d802aa8d64e776e96", "location": {"lat": 39.907164, "lng": 116.227256}, "name": "依翠园-20号楼"}, {"detail": 1, "address": "依翠园10号", "uid": "7ee8f3f446b0d1c172210bbf", "detail_info": {"navi_location": {"lat": 39.906053202046, "lng": 116.22280893776}, "image_num": "4", "type": "house", "detail_url": "http://api.map.baidu.com/place/detail?uid=7ee8f3f446b0d1c172210bbf&output=html&source=placeapi_v2", "tag": "房地产;住宅区", "overall_rating": "4.0"}, "street_id": "7ee8f3f446b0d1c172210bbf", "location": {"lat": 39.906585, "lng": 116.222188}, "name": "依翠园-10号楼"}, {"detail": 1, "address": "北京市石景山区依翠园19号楼", "uid": "9e3b6acc4acf892f400245a8", "detail_info": {"navi_location": {"lat": 39.907715002387, "lng": 116.22739356659}, "type": "house", "detail_url": "http://api.map.baidu.com/place/detail?uid=9e3b6acc4acf892f400245a8&output=html&source=placeapi_v2", "image_num": "4", "tag": "房地产;住宅区"}, "street_id": "9e3b6acc4acf892f400245a8", "location": {"lat": 39.907919, "lng": 116.227264}, "name": "依翠园-19号楼"}, {"detail": 1, "address": "北京市石景山区依翠园", "uid": "bb4209d615cc44aac33644da", "detail_info": {"navi_location": {"lat": 39.906395877036, "lng": 116.22540072163}, "type": "house", "detail_url": "http://api.map.baidu.com/place/detail?uid=bb4209d615cc44aac33644da&output=html&source=placeapi_v2", "image_num": "4", "tag": "房地产;住宅区"}, "street_id": "bb4209d615cc44aac33644da", "location": {"lat": 39.90647, "lng": 116.225254}, "name": "依翠园-15号楼"}, {"detail": 1, "address": "依翠园9号", "uid": "9bd9b871eb465aa697ec8420", "detail_info": {"navi_location": {"lat": 39.90604931751, "lng": 116.22306224464}, "type": "house", "detail_url": "http://api.map.baidu.com/place/detail?uid=9bd9b871eb465aa697ec8420&output=html&source=placeapi_v2", "image_num": "1", "tag": "房地产;住宅区"}, "street_id": "9bd9b871eb465aa697ec8420", "location": {"lat": 39.906539, "lng": 116.223579}, "name": "依翠园-9号楼"}, {"detail": 1, "address": "北京市石景山区依翠园18号楼", "uid": "3be99bd38a4e690f5d0d028a", "detail_info": {"navi_location": {"lat": 39.907129964962, "lng": 116.22629822405}, "type": "house", "detail_url": "http://api.map.baidu.com/place/detail?uid=3be99bd38a4e690f5d0d028a&output=html&source=placeapi_v2", "image_num": "7", "tag": "房地产;住宅区"}, "street_id": "3be99bd38a4e690f5d0d028a", "location": {"lat": 39.907186, "lng": 116.22612}, "name": "依翠园-18号楼"}, {"detail": 1, "address": "北京市石景山路与鲁谷大街交汇处西南角", "uid": "78168146b9011acd3c9a5ea2", "detail_info": {"navi_location": {"lat": 39.912621915541, "lng": 116.23324083388}, "image_num": "96", "type": "house", "detail_url": "http://api.map.baidu.com/place/detail?uid=78168146b9011acd3c9a5ea2&output=html&source=placeapi_v2", "tag": "房地产;住宅区", "price": "37711.0", "overall_rating": "3.0"}, "street_id": "78168146b9011acd3c9a5ea2", "location": {"lat": 39.912064, "lng": 116.231964}, "name": "万达广场·石景山"}, {"detail": 1, "address": "鲁谷大街永乐西区36楼4单元101", "uid": "50f7d1461f2408c472210bdd", "detail_info": {"navi_location": {"lat": 39.906981122036, "lng": 116.23562532118}, "image_num": "22", "type": "house", "detail_url": "http://api.map.baidu.com/place/detail?uid=50f7d1461f2408c472210bdd&output=html&source=placeapi_v2", "tag": "房地产;住宅区", "price": "35896.0", "overall_rating": "3.0"}, "street_id": "50f7d1461f2408c472210bdd", "location": {"lat": 39.907246, "lng": 116.232996}, "name": "永乐西小区"}, {"detail": 1, "address": "北京市石景山区银河大街8号", "uid": "1eeed546393b16f2b5147fdd", "detail_info": {"navi_location": {"lat": 39.907727223636, "lng": 116.22765447673}, "image_num": "100", "type": "house", "detail_url": "http://api.map.baidu.com/place/detail?uid=1eeed546393b16f2b5147fdd&output=html&source=placeapi_v2", "tag": "房地产;住宅区", "price": "35652.0", "overall_rating": "4.0"}, "street_id": "1eeed546393b16f2b5147fdd", "telephone": "(010)68642083", "location": {"lat": 39.907465, "lng": 116.229032}, "name": "双锦园小区"}, {"detail": 1, "address": "北京市石景山区", "uid": "ac4edb2fc03b7836ad080f9c", "detail_info": {"navi_location": {"lat": 39.909125003377, "lng": 116.2325585448}, "image_num": "5", "type": "house", "detail_url": "http://api.map.baidu.com/place/detail?uid=ac4edb2fc03b7836ad080f9c&output=html&source=placeapi_v2", "tag": "房地产;住宅区", "overall_rating": "4.0"}, "street_id": "ac4edb2fc03b7836ad080f9c", "location": {"lat": 39.909166, "lng": 116.231982}, "name": "永乐西小区-3号楼"}, {"detail": 1, "address": "北京市石景山区六合园3号楼", "uid": "937d3790d4892a89e9f8539a", "detail_info": {"navi_location": {"lat": 39.90567424488, "lng": 116.22794438956}, "type": "house", "detail_url": "http://api.map.baidu.com/place/detail?uid=937d3790d4892a89e9f8539a&output=html&source=placeapi_v2", "image_num": "2", "tag": "房地产;住宅区"}, "street_id": "937d3790d4892a89e9f8539a", "location": {"lat": 39.905526, "lng": 116.228033}, "name": "六合园3号楼"}, {"detail": 1, "address": "八宝山华联超市南侧300米", "uid": "69734b6fd06b514c14c8f6e4", "detail_info": {"navi_location": {"lat": 39.909365839199, "lng": 116.22939379203}, "image_num": "59", "type": "house", "detail_url": "http://api.map.baidu.com/place/detail?uid=69734b6fd06b514c14c8f6e4&output=html&source=placeapi_v2", "tag": "房地产;住宅区", "price": "35950.0", "overall_rating": "4.0"}, "street_id": "69734b6fd06b514c14c8f6e4", "location": {"lat": 39.908605, "lng": 116.229763}, "name": "鲁谷小区"}, {"detail": 1, "address": "北京市石景山区双锦园9号楼", "uid": "9741ae3f5b54f7242fb9084c", "detail_info": {"navi_location": {"lat": 39.908808410944, "lng": 116.2295362022}, "type": "house", "detail_url": "http://api.map.baidu.com/place/detail?uid=9741ae3f5b54f7242fb9084c&output=html&source=placeapi_v2", "image_num": "1", "tag": "房地产;住宅区"}, "street_id": "9741ae3f5b54f7242fb9084c", "location": {"lat": 39.908881, "lng": 116.229993}, "name": "双锦园-9号楼"}, {"detail": 1, "address": "北京市石景山区永乐西小区2号楼", "uid": "d8e3f76d8344b69a72210b98", "detail_info": {"navi_location": {"lat": 39.909046499907, "lng": 116.23314943309}, "type": "house", "detail_url": "http://api.map.baidu.com/place/detail?uid=d8e3f76d8344b69a72210b98&output=html&source=placeapi_v2", "image_num": "4", "tag": "房地产;住宅区"}, "street_id": "d8e3f76d8344b69a72210b98", "location": {"lat": 39.909163, "lng": 116.232998}, "name": "永乐西小区-2号楼"}, {"detail": 1, "address": "北京市石景山区永乐西小区1号楼", "uid": "04b74f8f4321587f6d20b91b", "detail_info": {"navi_location": {"lat": 39.908579682098, "lng": 116.23501642815}, "type": "house", "detail_url": "http://api.map.baidu.com/place/detail?uid=04b74f8f4321587f6d20b91b&output=html&source=placeapi_v2", "image_num": "1", "tag": "房地产;住宅区"}, "street_id": "04b74f8f4321587f6d20b91b", "location": {"lat": 39.909083, "lng": 116.234875}, "name": "永乐西小区-1号楼"}, {"detail": 1, "address": "北京市石景山区鲁谷南路14号", "uid": "43e9f760d6bb74c325d2bb49", "detail_info": {"navi_location": {"lat": 39.905263426256, "lng": 116.230132068}, "type": "house", "detail_url": "http://api.map.baidu.com/place/detail?uid=43e9f760d6bb74c325d2bb49&output=html&source=placeapi_v2", "image_num": "5", "tag": "房地产;住宅区"}, "street_id": "43e9f760d6bb74c325d2bb49", "location": {"lat": 39.905416, "lng": 116.229746}, "name": "鲁谷社区惠民乐园"}, {"detail": 1, "address": "北京市石景山区西长安街玉泉路地铁站向南600米", "uid": "0bc4861e7ea9118b3ce23155", "detail_info": {"navi_location": {"lat": 39.909437351078, "lng": 116.2470466101}, "image_num": "177", "type": "house", "detail_url": "http://api.map.baidu.com/place/detail?uid=0bc4861e7ea9118b3ce23155&output=html&source=placeapi_v2", "tag": "房地产;住宅区", "price": "47839.0", "overall_rating": "4.5"}, "street_id": "0bc4861e7ea9118b3ce23155", "location": {"lat": 39.907703, "lng": 116.246141}, "name": "远洋山水"}, {"detail": 1, "address": "鲁谷路永乐小区81", "uid": "fe77ee549ea37acdaf04577f", "detail_info": {"navi_location": {"lat": 39.904991739826, "lng": 116.23631625197}, "image_num": "98", "type": "house", "detail_url": "http://api.map.baidu.com/place/detail?uid=fe77ee549ea37acdaf04577f&output=html&source=placeapi_v2", "tag": "房地产;住宅区", "price": "36649.0", "overall_rating": "4"}, "street_id": "fe77ee549ea37acdaf04577f", "location": {"lat": 39.906231, "lng": 116.239151}, "name": "永乐小区"}, {"detail": 1, "address": "北京市石景山区鲁谷路", "uid": "0f34860a4669a9cdb9df8faf", "detail_info": {"navi_location": {"lat": 39.90953738188, "lng": 116.24705049078}, "image_num": "3", "type": "house", "detail_url": "http://api.map.baidu.com/place/detail?uid=0f34860a4669a9cdb9df8faf&output=html&source=placeapi_v2", "tag": "房地产;住宅区", "overall_rating": "4.0"}, "street_id": "0f34860a4669a9cdb9df8faf", "location": {"lat": 39.908401, "lng": 116.246135}, "name": "远洋山水-北区"}, {"detail": 1, "address": "北京市石景山区鲁谷大街东侧", "uid": "0408d3750f0f14b4b2077d2a", "detail_info": {"navi_location": {"lat": 39.906387512805, "lng": 116.23611647241}, "image_num": "1", "type": "house", "detail_url": "http://api.map.baidu.com/place/detail?uid=0408d3750f0f14b4b2077d2a&output=html&source=placeapi_v2", "tag": "房地产;住宅区", "price": "34446.0", "overall_rating": "4.0"}, "street_id": "0408d3750f0f14b4b2077d2a", "location": {"lat": 39.90702, "lng": 116.239104}, "name": "永乐-东区"}, {"detail": 1, "address": "玉泉路口西南", "uid": "d3d4ed803e1fc639047ce8f6", "detail_info": {"navi_location": {"lat": 39.907854816326, "lng": 116.24571739911}, "image_num": "22", "type": "house", "detail_url": "http://api.map.baidu.com/place/detail?uid=d3d4ed803e1fc639047ce8f6&output=html&source=placeapi_v2", "tag": "房地产;住宅区", "price": "36245.0", "overall_rating": "4.0"}, "street_id": "d3d4ed803e1fc639047ce8f6", "location": {"lat": 39.907855, "lng": 116.245717}, "name": "玉泉西里二区"}, {"detail": 1, "address": "北京市石景山区鲁谷村7号楼", "uid": "2c7c9db0bbccda135fbe8600", "detail_info": {"navi_location": {"lat": 39.906765298854, "lng": 116.24426593144}, "type": "house", "detail_url": "http://api.map.baidu.com/place/detail?uid=2c7c9db0bbccda135fbe8600&output=html&source=placeapi_v2", "image_num": "2", "tag": "房地产;住宅区"}, "street_id": "2c7c9db0bbccda135fbe8600", "location": {"lat": 39.906598, "lng": 116.244481}, "name": "鲁谷村-7号楼"}, {"detail": 1, "address": "北京市石景山区永乐小区", "uid": "463ef0a09fb633b5d6b74ec3", "detail_info": {"navi_location": {"lat": 39.908473848715, "lng": 116.23990705667}, "type": "house", "detail_url": "http://api.map.baidu.com/place/detail?uid=463ef0a09fb633b5d6b74ec3&output=html&source=placeapi_v2", "image_num": "1", "tag": "房地产;住宅区"}, "street_id": "463ef0a09fb633b5d6b74ec3", "location": {"lat": 39.908492, "lng": 116.239679}, "name": "永乐小区-74号楼"}, {"detail": 1, "address": "严正街三山四季园附近", "uid": "27a3616cf5105780c9e33c25", "detail_info": {"navi_location": {"lat": 39.908961884173, "lng": 116.23992351183}, "type": "house", "detail_url": "http://api.map.baidu.com/place/detail?uid=27a3616cf5105780c9e33c25&output=html&source=placeapi_v2", "image_num": "2", "tag": "房地产;住宅区"}, "street_id": "27a3616cf5105780c9e33c25", "location": {"lat": 39.908959, "lng": 116.24029}, "name": "永乐小区-73号楼"}, {"detail": 1, "address": "北京市石景山区鲁谷村8号楼", "uid": "b1abca3574b20d8e9eec2b59", "detail_info": {"navi_location": {"lat": 39.906335004935, "lng": 116.24382356089}, "type": "house", "detail_url": "http://api.map.baidu.com/place/detail?uid=b1abca3574b20d8e9eec2b59&output=html&source=placeapi_v2", "image_num": "3", "tag": "房地产;住宅区"}, "street_id": "b1abca3574b20d8e9eec2b59", "location": {"lat": 39.90607, "lng": 116.244262}, "name": "鲁谷小区8号楼"}, {"detail": 1, "address": "石景山石景山鲁谷村", "uid": "dffd4642d289b1b23c9a5edd", "detail_info": {"navi_location": {"lat": 39.906425648685, "lng": 116.24359160943}, "image_num": "65", "type": "house", "detail_url": "http://api.map.baidu.com/place/detail?uid=dffd4642d289b1b23c9a5edd&output=html&source=placeapi_v2", "tag": "房地产;住宅区", "price": "39163.0", "overall_rating": "4.0"}, "street_id": "dffd4642d289b1b23c9a5edd", "location": {"lat": 39.906524, "lng": 116.243953}, "name": "鲁谷村小区"}, {"detail": 1, "address": "北京市石景山区西长安街玉泉路地铁站向南４００米", "uid": "0a774fcf252b1798fda7781f", "detail_info": {"navi_location": {"lat": 39.909217876043, "lng": 116.25551102402}, "image_num": "375", "type": "house", "detail_url": "http://api.map.baidu.com/place/detail?uid=0a774fcf252b1798fda7781f&output=html&source=placeapi_v2", "tag": "房地产;住宅区", "price": "97229.0", "overall_rating": "5"}, "street_id": "0a774fcf252b1798fda7781f", "telephone": "010-68669999", "location": {"lat": 39.90809, "lng": 116.257356}, "name": "远洋·沁山水"}, {"detail": 1, "address": "北京石景山区鲁谷路,与玉泉路路口以西约300米路北", "uid": "e08be33971f06030631809d9", "detail_info": {"navi_location": {"lat": 39.907010596075, "lng": 116.24965113104}, "image_num": "64", "type": "house", "detail_url": "http://api.map.baidu.com/place/detail?uid=e08be33971f06030631809d9&output=html&source=placeapi_v2", "tag": "房地产;住宅区", "price": "40825.0", "overall_rating": "4.3"}, "street_id": "e08be33971f06030631809d9", "location": {"lat": 39.909158, "lng": 116.250381}, "name": "鲁谷街74号院"}, {"detail": 1, "address": "玉泉西街甲11号，在玉泉路口西402医院对面", "uid": "dc0f0adc6a210921f82213dd", "detail_info": {"navi_location": {"lat": 39.91419396608, "lng": 116.25179736436}, "image_num": "40", "type": "house", "detail_url": "http://api.map.baidu.com/place/detail?uid=dc0f0adc6a210921f82213dd&output=html&source=placeapi_v2", "tag": "房地产;住宅区", "price": "48780.0", "overall_rating": "4"}, "street_id": "155d9bdc4a516d652cb96dbe", "location": {"lat": 39.914747, "lng": 116.250923}, "name": "园林小区"}, {"detail": 1, "address": "北京市石景山区石槽东路远洋·沁山水玉泉西里一区", "uid": "a481f1707cb770bea0acc440", "detail_info": {"navi_location": {"lat": 39.906396888102, "lng": 116.25693188822}, "image_num": "3", "type": "house", "detail_url": "http://api.map.baidu.com/place/detail?uid=a481f1707cb770bea0acc440&output=html&source=placeapi_v2", "tag": "房地产;住宅区", "overall_rating": "4.0"}, "street_id": "a481f1707cb770bea0acc440", "location": {"lat": 39.906571, "lng": 116.257536}, "name": "玉泉西里一区"}, {"detail": 1, "address": "北京市石景山石景山区鲁谷路74号南院", "uid": "5fcb8f1221e6984e9122e03d", "detail_info": {"navi_location": {"lat": 39.906840126776, "lng": 116.25218208256}, "image_num": "110", "type": "house", "detail_url": "http://api.map.baidu.com/place/detail?uid=5fcb8f1221e6984e9122e03d&output=html&source=placeapi_v2", "tag": "房地产;住宅区", "price": "82753.0", "overall_rating": "4.0"}, "street_id": "5fcb8f1221e6984e9122e03d", "telephone": "(010)68639350", "location": {"lat": 39.905789, "lng": 116.251929}, "name": "玉兴园小区"}, {"detail": 1, "address": "北京市石景山区鲁谷路74号,中国瑞达系统装备公司院内", "uid": "bff8fa7de8b504dec8213d42", "detail_info": {"navi_location": {"lat": 39.907016500249, "lng": 116.24970381486}, "image_num": "35", "type": "house", "detail_url": "http://api.map.baidu.com/place/detail?uid=bff8fa7de8b504dec8213d42&output=html&source=placeapi_v2", "tag": "房地产;住宅区", "price": "41145.0", "overall_rating": "4"}, "street_id": "bff8fa7de8b504dec8213d42", "location": {"lat": 39.906364, "lng": 116.250451}, "name": "瑞达小区"}, {"detail": 1, "address": "北京市石景山区远洋山水北区12号楼", "uid": "c85b93c1fb9b7d16c51e519b", "detail_info": {"navi_location": {"lat": 39.908612230607, "lng": 116.24919222448}, "type": "house", "detail_url": "http://api.map.baidu.com/place/detail?uid=c85b93c1fb9b7d16c51e519b&output=html&source=placeapi_v2", "image_num": "1", "tag": "房地产;住宅区"}, "street_id": "c85b93c1fb9b7d16c51e519b", "location": {"lat": 39.908612, "lng": 116.249192}, "name": "远洋山水北区-12号楼"}, {"detail": 1, "address": "鲁谷路74号院", "uid": "06d2dffd118140f688f15ddd", "detail_info": {"navi_location": {"lat": 39.910004289687, "lng": 116.25297011119}, "type": "house", "detail_url": "http://api.map.baidu.com/place/detail?uid=06d2dffd118140f688f15ddd&output=html&source=placeapi_v2", "image_num": "5", "tag": "房地产;宿舍"}, "street_id": "06d2dffd118140f688f15ddd", "location": {"lat": 39.910032, "lng": 116.253274}, "name": "鲁谷路七十四号院情报所宿舍"}, {"detail": 1, "address": "北京市石景山区远洋山水北区18号楼", "uid": "0cac5f0eaf5d4eb09e9d6812", "detail_info": {"navi_location": {"lat": 39.906936678875, "lng": 116.24829903932}, "type": "house", "detail_url": "http://api.map.baidu.com/place/detail?uid=0cac5f0eaf5d4eb09e9d6812&output=html&source=placeapi_v2", "image_num": "1", "tag": "房地产;住宅区"}, "street_id": "0cac5f0eaf5d4eb09e9d6812", "location": {"lat": 39.906937, "lng": 116.248299}, "name": "远洋山水北区-18号楼"}, {"detail": 1, "address": "北京市石景山区远洋山水南区23号楼", "uid": "078c935f90184b55eb56fa44", "detail_info": {"navi_location": {"lat": 39.905686385134, "lng": 116.24867314134}, "type": "house", "detail_url": "http://api.map.baidu.com/place/detail?uid=078c935f90184b55eb56fa44&output=html&source=placeapi_v2", "image_num": "1", "tag": "房地产;住宅区"}, "street_id": "078c935f90184b55eb56fa44", "location": {"lat": 39.905642, "lng": 116.249114}, "name": "远洋山水南区-23号楼"}, {"detail": 1, "address": "海淀玉泉路地铁东南口,复兴路40", "uid": "f633606ac60177300b69d9ce", "detail_info": {"navi_location": {"lat": 39.909967082012, "lng": 116.26318092175}, "image_num": "26", "type": "house", "detail_url": "http://api.map.baidu.com/place/detail?uid=f633606ac60177300b69d9ce&output=html&source=placeapi_v2", "tag": "房地产;住宅区", "price": "48944.0", "overall_rating": "4.0"}, "street_id": "f633606ac60177300b69d9ce", "location": {"lat": 39.911647, "lng": 116.264064}, "name": "复兴路40号院"}, {"detail": 1, "address": "玉泉路地铁口", "uid": "3c6fd75ef915203f1811d575", "detail_info": {"navi_location": {"lat": 39.911110387483, "lng": 116.2647526878}, "image_num": "12", "type": "house", "detail_url": "http://api.map.baidu.com/place/detail?uid=3c6fd75ef915203f1811d575&output=html&source=placeapi_v2", "tag": "房地产;住宅区", "price": "50852.0"}, "street_id": "3c6fd75ef915203f1811d575", "location": {"lat": 39.911284, "lng": 116.263846}, "name": "复兴路40号-东院"}, {"detail": 1, "address": "北京市海淀区北太平路18号院高层2号楼", "uid": "5deb79c0a07c54234c6d46a5", "detail_info": {"navi_location": {"lat": 39.908686117481, "lng": 116.26480872679}, "type": "house", "detail_url": "http://api.map.baidu.com/place/detail?uid=5deb79c0a07c54234c6d46a5&output=html&source=placeapi_v2", "image_num": "1", "tag": "房地产;住宅区"}, "street_id": "5deb79c0a07c54234c6d46a5", "location": {"lat": 39.908684, "lng": 116.264818}, "name": "北太平路18号院-高层2号楼"}, {"detail": 1, "address": "北太平路甲18号院，十一学学校隔避", "uid": "fa01e9378bd8f14a764ff1b6", "detail_info": {"navi_location": {"lat": 39.910000360201, "lng": 116.26485021054}, "image_num": "20", "type": "house", "detail_url": "http://api.map.baidu.com/place/detail?uid=fa01e9378bd8f14a764ff1b6&output=html&source=placeapi_v2", "tag": "房地产;住宅区", "price": "63499.0"}, "street_id": "fa01e9378bd8f14a764ff1b6", "location": {"lat": 39.908566, "lng": 116.26609}, "name": "北太平路18号院"}, {"detail": 1, "address": "太平路十一学校南门太平路33号院", "uid": "c61bd305c230fc68c37da2b6", "detail_info": {"navi_location": {"lat": 39.906371157524, "lng": 116.26440932579}, "image_num": "54", "type": "house", "detail_url": "http://api.map.baidu.com/place/detail?uid=c61bd305c230fc68c37da2b6&output=html&source=placeapi_v2", "tag": "房地产;住宅区", "price": "56362.0"}, "street_id": "c61bd305c230fc68c37da2b6", "location": {"lat": 39.907442, "lng": 116.264792}, "name": "太平路33号院"}, {"detail": 1, "address": "北京市海淀区复兴路46号", "uid": "9fbfeef2ca14f544ece4a5a4", "detail_info": {"navi_location": {"lat": 39.912544814208, "lng": 116.25960416206}, "image_num": "66", "type": "house", "detail_url": "http://api.map.baidu.com/place/detail?uid=9fbfeef2ca14f544ece4a5a4&output=html&source=placeapi_v2", "tag": "房地产;住宅区", "price": "49285.0"}, "street_id": "9fbfeef2ca14f544ece4a5a4", "location": {"lat": 39.912223, "lng": 116.260274}, "name": "复兴路46号院"}, {"detail": 1, "address": "北京市海淀区北太平路18号院高层1号楼", "uid": "7c8a03d7225b5a4802294f46", "detail_info": {"navi_location": {"lat": 39.90868950742, "lng": 116.26417631971}, "type": "house", "detail_url": "http://api.map.baidu.com/place/detail?uid=7c8a03d7225b5a4802294f46&output=html&source=placeapi_v2", "image_num": "1", "tag": "房地产;住宅区"}, "street_id": "7c8a03d7225b5a4802294f46", "location": {"lat": 39.908679, "lng": 116.264159}, "name": "北太平路18号院-高层1号楼"}, {"detail": 1, "address": "石景山玉泉路11中学校内", "uid": "c761fc7203de7d60601c676b", "detail_info": {"navi_location": {"lat": 39.909948308674, "lng": 116.26290457513}, "image_num": "1", "type": "house", "detail_url": "http://api.map.baidu.com/place/detail?uid=c761fc7203de7d60601c676b&output=html&source=placeapi_v2", "tag": "房地产;住宅区", "price": "25000.0"}, "street_id": "c761fc7203de7d60601c676b", "location": {"lat": 39.909573, "lng": 116.262468}, "name": "玉泉路11中学家属楼"}, {"detail": 1, "address": "北京市海淀区太平路33号院3号楼", "uid": "cae2e4e99fa92242336212fc", "detail_info": {"navi_location": {"lat": 39.907614127285, "lng": 116.26473228099}, "type": "house", "detail_url": "http://api.map.baidu.com/place/detail?uid=cae2e4e99fa92242336212fc&output=html&source=placeapi_v2", "image_num": "1", "tag": "房地产;住宅区"}, "street_id": "cae2e4e99fa92242336212fc", "location": {"lat": 39.907614, "lng": 116.264767}, "name": "太平路33号院-3号楼"}, {"detail": 1, "address": "北京市海淀区北太平路18号院1号楼", "uid": "e416cea5cbb583caf503b8ef", "detail_info": {"navi_location": {"lat": 39.908981157418, "lng": 116.26610220768}, "type": "house", "detail_url": "http://api.map.baidu.com/place/detail?uid=e416cea5cbb583caf503b8ef&output=html&source=placeapi_v2", "image_num": "3", "tag": "房地产;住宅区"}, "street_id": "e416cea5cbb583caf503b8ef", "location": {"lat": 39.909102, "lng": 116.266142}, "name": "北太平路18号院-1号楼"}, {"detail": 1, "address": "五棵松永定路109号院", "uid": "c9222bfb2434fea64c3a5973", "detail_info": {"navi_location": {"lat": 39.912128702935, "lng": 116.27094967711}, "image_num": "87", "type": "house", "detail_url": "http://api.map.baidu.com/place/detail?uid=c9222bfb2434fea64c3a5973&output=html&source=placeapi_v2", "tag": "房地产;住宅区", "price": "61041.0", "overall_rating": "4.0"}, "street_id": "c9222bfb2434fea64c3a5973", "location": {"lat": 39.911414, "lng": 116.26981}, "name": "永定路西里小区"}, {"detail": 1, "address": "海淀区复兴路甲36号华普超市往东", "uid": "8ab0dfc47098b716d9ecedb6", "detail_info": {"navi_location": {"lat": 39.91265016994, "lng": 116.27107262638}, "image_num": "91", "type": "house", "detail_url": "http://api.map.baidu.com/place/detail?uid=8ab0dfc47098b716d9ecedb6&output=html&source=placeapi_v2", "tag": "房地产;住宅区", "price": "42314.0", "overall_rating": "4"}, "street_id": "8ab0dfc47098b716d9ecedb6", "location": {"lat": 39.913032, "lng": 116.270122}, "name": "百朗园社区"}, {"detail": 1, "address": "北京市海淀区永定路街道86", "uid": "923b5440805a2326e7e9656f", "detail_info": {"navi_location": {"lat": 39.916380010499, "lng": 116.27122058898}, "image_num": "26", "type": "house", "detail_url": "http://api.map.baidu.com/place/detail?uid=923b5440805a2326e7e9656f&output=html&source=placeapi_v2", "tag": "房地产;住宅区", "price": "45171.0", "overall_rating": "5.0"}, "street_id": "923b5440805a2326e7e9656f", "telephone": "13552509734", "location": {"lat": 39.915107, "lng": 116.268822}, "name": "永定路85号院小区"}, {"detail": 1, "address": "北京市海淀区复兴路38号", "uid": "4420764672caba6bdfee8bb6", "detail_info": {"navi_location": {"lat": 39.913096922469, "lng": 116.26679745931}, "image_num": "92", "type": "house", "detail_url": "http://api.map.baidu.com/place/detail?uid=4420764672caba6bdfee8bb6&output=html&source=placeapi_v2", "tag": "房地产;住宅区", "price": "40347.0", "overall_rating": "3.3"}, "street_id": "4420764672caba6bdfee8bb6", "location": {"lat": 39.912986, "lng": 116.26783}, "name": "嘉德公寓"}, {"detail": 1, "address": "复兴路32号", "uid": "bebd4aea696ddbe91e1d11ed", "detail_info": {"navi_location": {"lat": 39.913578761294, "lng": 116.27817614249}, "image_num": "4", "type": "house", "detail_url": "http://api.map.baidu.com/place/detail?uid=bebd4aea696ddbe91e1d11ed&output=html&source=placeapi_v2", "tag": "房地产;住宅区", "overall_rating": "4.0"}, "street_id": "bebd4aea696ddbe91e1d11ed", "location": {"lat": 39.912318, "lng": 116.276326}, "name": "北京六建家属院"}, {"detail": 1, "address": "海淀区沙窝桥向西100米", "uid": "68176bb8a45b9e7230169b32", "detail_info": {"type": "house", "detail_url": "http://api.map.baidu.com/place/detail?uid=68176bb8a45b9e7230169b32&output=html&source=placeapi_v2", "price": "94018.0", "image_num": "36", "tag": "房地产;住宅区"}, "street_id": "68176bb8a45b9e7230169b32", "location": {"lat": 39.90583, "lng": 116.275281}, "name": "太平路甲-40号院"}, {"detail": 1, "address": "北京市海淀区永定路西里小区9号楼", "uid": "ce32ac3615329702f8dc85b3", "detail_info": {"navi_location": {"lat": 39.912146883224, "lng": 116.26950943915}, "type": "house", "detail_url": "http://api.map.baidu.com/place/detail?uid=ce32ac3615329702f8dc85b3&output=html&source=placeapi_v2", "image_num": "3", "tag": "房地产;住宅区"}, "street_id": "ce32ac3615329702f8dc85b3", "location": {"lat": 39.911967, "lng": 116.269508}, "name": "永定路西里小区-9号楼"}, {"detail": 1, "address": "北京市海淀区永定路西里小区", "uid": "b2dd8b033751d8744d5547a8", "detail_info": {"navi_location": {"lat": 39.912601394174, "lng": 116.27028619584}, "type": "house", "detail_url": "http://api.map.baidu.com/place/detail?uid=b2dd8b033751d8744d5547a8&output=html&source=placeapi_v2", "image_num": "3", "tag": "房地产;住宅区"}, "street_id": "b2dd8b033751d8744d5547a8", "location": {"lat": 39.912313, "lng": 116.270333}, "name": "永定路西里小区-10号楼"}, {"detail": 1, "address": "太平路38号", "uid": "31f9101bdd3416b927e0a0b6", "detail_info": {"navi_location": {"lat": 39.906454864629, "lng": 116.27692855694}, "image_num": "12", "type": "house", "detail_url": "http://api.map.baidu.com/place/detail?uid=31f9101bdd3416b927e0a0b6&output=html&source=placeapi_v2", "tag": "房地产;住宅区", "price": "64350.0"}, "street_id": "31f9101bdd3416b927e0a0b6", "location": {"lat": 39.905819, "lng": 116.276953}, "name": "太平路38号院"}, {"detail": 1, "address": "北京市海淀区太平路40号院煤炭宿舍1号楼", "uid": "e79fdfa526cad2cb3f9a5ecd", "detail_info": {"navi_location": {"lat": 39.906493559967, "lng": 116.27500677333}, "type": "house", "detail_url": "http://api.map.baidu.com/place/detail?uid=e79fdfa526cad2cb3f9a5ecd&output=html&source=placeapi_v2", "image_num": "1", "tag": "房地产;住宅区"}, "street_id": "e79fdfa526cad2cb3f9a5ecd", "location": {"lat": 39.906295, "lng": 116.275399}, "name": "煤炭宿舍-1号楼"}, {"detail": 1, "address": "海淀区西翠路5号(近太平路)", "uid": "5742a48e233141703310afcd", "detail_info": {"navi_location": {"lat": 39.90669930875, "lng": 116.28739511957}, "image_num": "6", "type": "house", "detail_url": "http://api.map.baidu.com/place/detail?uid=5742a48e233141703310afcd&output=html&source=placeapi_v2", "tag": "房地产;住宅区", "price": "38778.0", "overall_rating": "4"}, "street_id": "5742a48e233141703310afcd", "location": {"lat": 39.90744, "lng": 116.287439}, "name": "今日家园小区"}, {"detail": 1, "address": "北京市海淀区太平路甲25号", "uid": "2c0bd6c5c8be24aa42ab9ab6", "detail_info": {"navi_location": {"lat": 39.906767147115, "lng": 116.28523709778}, "image_num": "21", "type": "house", "detail_url": "http://api.map.baidu.com/place/detail?uid=2c0bd6c5c8be24aa42ab9ab6&output=html&source=placeapi_v2", "tag": "房地产;住宅区", "price": "45303.0", "overall_rating": "5.0"}, "street_id": "2c0bd6c5c8be24aa42ab9ab6", "location": {"lat": 39.907414, "lng": 116.283703}, "name": "明日家园小区"}, {"detail": 1, "address": "五棵松地铁西南角，复兴路32号", "uid": "d24e48ebb3a1e2c9afee7ae6", "detail_info": {"navi_location": {"lat": 39.913563766043, "lng": 116.27817615597}, "image_num": "46", "type": "house", "detail_url": "http://api.map.baidu.com/place/detail?uid=d24e48ebb3a1e2c9afee7ae6&output=html&source=placeapi_v2", "tag": "房地产;住宅区", "price": "58994.0", "overall_rating": "4.0"}, "street_id": "d24e48ebb3a1e2c9afee7ae6", "telephone": "(010)69424800", "location": {"lat": 39.911685, "lng": 116.277932}, "name": "复兴路32号院"}, {"detail": 1, "address": "西翠路5号", "uid": "0e21a6231935c21aa10464fe", "detail_info": {"navi_location": {"lat": 39.908315201654, "lng": 116.28669936578}, "type": "house", "detail_url": "http://api.map.baidu.com/place/detail?uid=0e21a6231935c21aa10464fe&output=html&source=placeapi_v2", "image_num": "2", "tag": "房地产;住宅区"}, "street_id": "0e21a6231935c21aa10464fe", "location": {"lat": 39.907729, "lng": 116.286392}, "name": "今日家园-2号楼"}, {"detail": 1, "address": "西翠路5号附近", "uid": "c3f1e5c02097af6b78b55cac", "detail_info": {"navi_location": {"lat": 39.908311816055, "lng": 116.28733550173}, "type": "house", "detail_url": "http://api.map.baidu.com/place/detail?uid=c3f1e5c02097af6b78b55cac&output=html&source=placeapi_v2", "image_num": "1", "tag": "房地产;住宅区"}, "street_id": "c3f1e5c02097af6b78b55cac", "location": {"lat": 39.906953, "lng": 116.286333}, "name": "今日家园-11号楼"}, {"detail": 1, "address": "西翠路5号", "uid": "82920efe42663a1ab21e36ea", "detail_info": {"navi_location": {"lat": 39.906704322409, "lng": 116.28737910997}, "type": "house", "detail_url": "http://api.map.baidu.com/place/detail?uid=82920efe42663a1ab21e36ea&output=html&source=placeapi_v2", "image_num": "1", "tag": "房地产;住宅区"}, "street_id": "82920efe42663a1ab21e36ea", "location": {"lat": 39.90698, "lng": 116.287114}, "name": "今日家园-10号楼"}, {"detail": 1, "address": "太平路36号", "uid": "101bc61bc92a1ea3c52ba1b6", "detail_info": {"navi_location": {"lat": 39.906557348956, "lng": 116.27821685819}, "image_num": "4", "type": "house", "detail_url": "http://api.map.baidu.com/place/detail?uid=101bc61bc92a1ea3c52ba1b6&output=html&source=placeapi_v2", "tag": "房地产;住宅区", "price": "44693.0"}, "street_id": "101bc61bc92a1ea3c52ba1b6", "location": {"lat": 39.90611, "lng": 116.278592}, "name": "太平路36号院"}, {"detail": 1, "address": "北京市海淀区明日家园5号楼", "uid": "5601e131d027daacabf0cdfb", "detail_info": {"navi_location": {"lat": 39.907904905, "lng": 116.28368994081}, "type": "house", "detail_url": "http://api.map.baidu.com/place/detail?uid=5601e131d027daacabf0cdfb&output=html&source=placeapi_v2", "image_num": "1", "tag": "房地产;住宅区"}, "street_id": "5601e131d027daacabf0cdfb", "location": {"lat": 39.90794, "lng": 116.283456}, "name": "明日家园-5号楼"}, {"detail": 1, "address": "太平路5号", "uid": "0015fbedc0e99a09f03cba42", "detail_info": {"navi_location": {"lat": 39.908310090774, "lng": 116.28580140792}, "type": "house", "detail_url": "http://api.map.baidu.com/place/detail?uid=0015fbedc0e99a09f03cba42&output=html&source=placeapi_v2", "image_num": "10", "tag": "房地产;住宅区"}, "street_id": "0015fbedc0e99a09f03cba42", "location": {"lat": 39.907676, "lng": 116.286023}, "name": "今日家园-1号楼"}, {"detail": 1, "address": "海淀复兴路五棵松32号院", "uid": "71160526b776bcfcab175aec", "detail_info": {"type": "house", "detail_url": "http://api.map.baidu.com/place/detail?uid=71160526b776bcfcab175aec&output=html&source=placeapi_v2", "price": "64986.0", "image_num": "19", "tag": "房地产;住宅区"}, "street_id": "71160526b776bcfcab175aec", "location": {"lat": 39.913078, "lng": 116.278621}, "name": "五棵松32号院"}, {"detail": 1, "address": "北京市海淀区复兴路26号", "uid": "9d5f8ae55755e990ebe582ea", "detail_info": {"navi_location": {"lat": 39.910181351393, "lng": 116.28970532239}, "image_num": "42", "type": "house", "detail_url": "http://api.map.baidu.com/place/detail?uid=9d5f8ae55755e990ebe582ea&output=html&source=placeapi_v2", "tag": "房地产;住宅区", "price": "55476.0", "overall_rating": "4.0"}, "street_id": "9d5f8ae55755e990ebe582ea", "location": {"lat": 39.909378, "lng": 116.289192}, "name": "复兴路26号院"}, {"detail": 1, "address": "北京市海淀区复兴路", "uid": "2938e55add485db1931fc9cb", "detail_info": {"navi_location": {"lat": 39.913585207041, "lng": 116.29205952152}, "image_num": "8", "type": "house", "detail_url": "http://api.map.baidu.com/place/detail?uid=2938e55add485db1931fc9cb&output=html&source=placeapi_v2", "tag": "房地产;住宅区", "price": "66022.0", "overall_rating": "3.0"}, "street_id": "2938e55add485db1931fc9cb", "telephone": "010-66853094", "location": {"lat": 39.911744, "lng": 116.292355}, "name": "复兴路24号院"}, {"detail": 1, "address": "太平路25号", "uid": "3f826ed31d159046d0f49eb6", "detail_info": {"navi_location": {"lat": 39.906715608605, "lng": 116.29439526676}, "image_num": "8", "type": "house", "detail_url": "http://api.map.baidu.com/place/detail?uid=3f826ed31d159046d0f49eb6&output=html&source=placeapi_v2", "tag": "房地产;住宅区", "overall_rating": "4.0"}, "street_id": "3f826ed31d159046d0f49eb6", "telephone": "(010)68246500", "location": {"lat": 39.90764, "lng": 116.293847}, "name": "瑞兴公寓"}, {"detail": 1, "address": "北京市海淀区复兴路26号院74号楼", "uid": "83178ac6c8bb62771b94c60a", "detail_info": {"navi_location": {"lat": 39.910181351393, "lng": 116.28970532239}, "type": "house", "detail_url": "http://api.map.baidu.com/place/detail?uid=83178ac6c8bb62771b94c60a&output=html&source=placeapi_v2", "image_num": "1", "tag": "房地产;住宅区"}, "street_id": "83178ac6c8bb62771b94c60a", "location": {"lat": 39.909066, "lng": 116.289227}, "name": "复兴路26号院-74号楼"}, {"detail": 1, "address": "西翠路3", "uid": "23e91f25a1182c80acee7a62", "detail_info": {"navi_location": {"lat": 39.906564026238, "lng": 116.2888130517}, "image_num": "9", "type": "house", "detail_url": "http://api.map.baidu.com/place/detail?uid=23e91f25a1182c80acee7a62&output=html&source=placeapi_v2", "tag": "房地产;住宅区", "price": "52997.0", "overall_rating": "5"}, "street_id": "23e91f25a1182c80acee7a62", "location": {"lat": 39.905578, "lng": 116.288628}, "name": "海淀区西翠路三号院"}, {"detail": 1, "address": "西翠路5号", "uid": "e505cd5f7cc4e5d1c9fa5f86", "detail_info": {"navi_location": {"lat": 39.906701328175, "lng": 116.2873741109}, "type": "house", "detail_url": "http://api.map.baidu.com/place/detail?uid=e505cd5f7cc4e5d1c9fa5f86&output=html&source=placeapi_v2", "image_num": "1", "tag": "房地产;住宅区"}, "street_id": "e505cd5f7cc4e5d1c9fa5f86", "location": {"lat": 39.90695, "lng": 116.288388}, "name": "今日家园-8号楼"}, {"detail": 1, "address": "太平路附近", "uid": "81bff6d322d6161f5d0d027f", "detail_info": {"navi_location": {"lat": 39.908833679223, "lng": 116.28977682032}, "type": "house", "detail_url": "http://api.map.baidu.com/place/detail?uid=81bff6d322d6161f5d0d027f&output=html&source=placeapi_v2", "image_num": "1", "tag": "房地产;住宅区"}, "street_id": "81bff6d322d6161f5d0d027f", "location": {"lat": 39.907896, "lng": 116.292405}, "name": "太平路24号院"}, {"detail": 1, "address": "西翠路5号", "uid": "c484264475c637b688db73b1", "detail_info": {"navi_location": {"lat": 39.908319818776, "lng": 116.28732949206}, "type": "house", "detail_url": "http://api.map.baidu.com/place/detail?uid=c484264475c637b688db73b1&output=html&source=placeapi_v2", "image_num": "1", "tag": "房地产;住宅区"}, "street_id": "c484264475c637b688db73b1", "location": {"lat": 39.907769, "lng": 116.288139}, "name": "今日家园-4号楼"}, {"detail": 1, "address": "西翠路5号", "uid": "9283ec0ff44e41015e0d02ea", "detail_info": {"navi_location": {"lat": 39.908321868939, "lng": 116.28904250048}, "type": "house", "detail_url": "http://api.map.baidu.com/place/detail?uid=9283ec0ff44e41015e0d02ea&output=html&source=placeapi_v2", "image_num": "1", "tag": "房地产;住宅区"}, "street_id": "9283ec0ff44e41015e0d02ea", "location": {"lat": 39.907761, "lng": 116.288459}, "name": "今日家园-5号楼"}, {"detail": 1, "address": "北京市海淀区复兴路24号院30号楼", "uid": "1eff2b986226fb79593ac8cf", "detail_info": {"navi_location": {"lat": 39.913512208751, "lng": 116.29206359624}, "type": "house", "detail_url": "http://api.map.baidu.com/place/detail?uid=1eff2b986226fb79593ac8cf&output=html&source=placeapi_v2", "image_num": "2", "tag": "房地产;住宅区"}, "street_id": "1eff2b986226fb79593ac8cf", "location": {"lat": 39.913314, "lng": 116.293465}, "name": "复兴路24号院-30号楼"}, {"detail": 1, "address": "北京市海淀区复兴路", "uid": "8e2de1a66cba66c11c3894de", "detail_info": {"type": "house", "detail_url": "http://api.map.baidu.com/place/detail?uid=8e2de1a66cba66c11c3894de&output=html&source=placeapi_v2", "image_num": "4", "overall_rating": "4.0", "tag": "房地产;住宅区"}, "street_id": "8e2de1a66cba66c11c3894de", "location": {"lat": 39.912549, "lng": 116.306588}, "name": "复兴路20号院"}, {"detail": 1, "address": "北京市海淀区万寿路甲27号", "uid": "38453d7310bc7a045d17c31f", "detail_info": {"navi_location": {"lat": 39.908805819167, "lng": 116.30172822447}, "image_num": "1", "type": "house", "detail_url": "http://api.map.baidu.com/place/detail?uid=38453d7310bc7a045d17c31f&output=html&source=placeapi_v2", "tag": "房地产;住宅区", "price": "32937.03", "overall_rating": "4.0"}, "street_id": "38453d7310bc7a045d17c31f", "location": {"lat": 39.909199, "lng": 116.303497}, "name": "万寿路27号院"}, {"detail": 1, "address": "复兴路甲49号院", "uid": "9c0be11a9a0aafd1c809f0af", "detail_info": {"navi_location": {"lat": 39.913919360658, "lng": 116.30611376365}, "image_num": "52", "type": "house", "detail_url": "http://api.map.baidu.com/place/detail?uid=9c0be11a9a0aafd1c809f0af&output=html&source=placeapi_v2", "tag": "房地产;住宅区", "price": "95354.0"}, "street_id": "9c0be11a9a0aafd1c809f0af", "location": {"lat": 39.914586, "lng": 116.305931}, "name": "复兴路甲49号院"}, {"detail": 1, "address": "复兴路51号", "uid": "086f45dc23cf5ce3270bd08c", "detail_info": {"navi_location": {"lat": 39.914208059611, "lng": 116.30225147486}, "image_num": "60", "type": "house", "detail_url": "http://api.map.baidu.com/place/detail?uid=086f45dc23cf5ce3270bd08c&output=html&source=placeapi_v2", "tag": "房地产;住宅区", "price": "74429.0", "overall_rating": "4"}, "street_id": "086f45dc23cf5ce3270bd08c", "location": {"lat": 39.914134, "lng": 116.302316}, "name": "万寿路 26 号院"}, {"detail": 1, "address": "北京市海淀区复兴路61号院东16号楼", "uid": "3976a337f60c3f85601c677c", "detail_info": {"navi_location": {"lat": 39.914828154227, "lng": 116.29915581346}, "type": "house", "detail_url": "http://api.map.baidu.com/place/detail?uid=3976a337f60c3f85601c677c&output=html&source=placeapi_v2", "image_num": "2", "tag": "房地产;住宅区"}, "street_id": "3976a337f60c3f85601c677c", "location": {"lat": 39.914709, "lng": 116.299749}, "name": "复兴路61号院-东16号楼"}, {"detail": 1, "address": "北京市海淀区万寿路28号院62号楼", "uid": "a15386dc9033591ff60e7751", "detail_info": {"navi_location": {"lat": 39.906520257838, "lng": 116.30190730707}, "type": "house", "detail_url": "http://api.map.baidu.com/place/detail?uid=a15386dc9033591ff60e7751&output=html&source=placeapi_v2", "image_num": "3", "tag": "房地产;住宅区"}, "street_id": "a15386dc9033591ff60e7751", "location": {"lat": 39.906563, "lng": 116.302142}, "name": "万寿路28号院-62号楼"}, {"detail": 1, "address": "北京市海淀区西三环中路19号院北区105号楼", "uid": "64d7219fb639de172102203c", "detail_info": {"navi_location": {"lat": 39.910233779985, "lng": 116.30696297048}, "type": "house", "detail_url": "http://api.map.baidu.com/place/detail?uid=64d7219fb639de172102203c&output=html&source=placeapi_v2", "image_num": "1", "tag": "房地产;住宅区"}, "street_id": "64d7219fb639de172102203c", "location": {"lat": 39.910226, "lng": 116.307222}, "name": "西三环中路19号院北区105号楼"}, {"detail": 1, "address": "北京市海淀区复兴路61号院东15号楼", "uid": "9dff9c7b1c6f2f229e9d68e8", "detail_info": {"navi_location": {"lat": 39.914751223081, "lng": 116.2991518663}, "type": "house", "detail_url": "http://api.map.baidu.com/place/detail?uid=9dff9c7b1c6f2f229e9d68e8&output=html&source=placeapi_v2", "image_num": "2", "tag": "房地产;住宅区"}, "street_id": "9dff9c7b1c6f2f229e9d68e8", "location": {"lat": 39.914717, "lng": 116.298694}, "name": "复兴路61号院-东15号楼"}, {"detail": 1, "address": "北京市海淀区复兴路22号院28号楼", "uid": "f882514a73e1edc3f90cad40", "detail_info": {"navi_location": {"lat": 39.907818495097, "lng": 116.30076196754}, "type": "house", "detail_url": "http://api.map.baidu.com/place/detail?uid=f882514a73e1edc3f90cad40&output=html&source=placeapi_v2", "image_num": "1", "tag": "房地产;住宅区"}, "street_id": "f882514a73e1edc3f90cad40", "location": {"lat": 39.90775, "lng": 116.30042}, "name": "复兴路22号院28号楼"}, {"detail": 1, "address": "北京市海淀区复兴路61号院东9号楼", "uid": "48036f86ac7b3d4b74026959", "detail_info": {"navi_location": {"lat": 39.91504309665, "lng": 116.29933130283}, "type": "house", "detail_url": "http://api.map.baidu.com/place/detail?uid=48036f86ac7b3d4b74026959&output=html&source=placeapi_v2", "image_num": "2", "tag": "房地产;住宅区"}, "street_id": "48036f86ac7b3d4b74026959", "location": {"lat": 39.915029, "lng": 116.298729}, "name": "复兴路61号院-东9号楼"}, {"detail": 1, "address": "海淀区海淀西三环中路19号院", "uid": "fa8d28836e61eb99744ff11a", "detail_info": {"navi_location": {"lat": 39.912778826757, "lng": 116.31367600755}, "image_num": "4", "type": "house", "detail_url": "http://api.map.baidu.com/place/detail?uid=fa8d28836e61eb99744ff11a&output=html&source=placeapi_v2", "tag": "房地产;住宅区", "price": "51639.0", "overall_rating": "4.0"}, "street_id": "fa8d28836e61eb99744ff11a", "location": {"lat": 39.911385, "lng": 116.314219}, "name": "西三环中路19号院"}, {"detail": 1, "address": "什坊院甲2", "uid": "58f3179fab87a30a2afc483c", "detail_info": {"navi_location": {"lat": 39.905717157861, "lng": 116.31776814847}, "image_num": "4", "type": "house", "detail_url": "http://api.map.baidu.com/place/detail?uid=58f3179fab87a30a2afc483c&output=html&source=placeapi_v2", "tag": "房地产;住宅区", "overall_rating": "4"}, "street_id": "58f3179fab87a30a2afc483c", "location": {"lat": 39.905895, "lng": 116.317649}, "name": "什坊院-二号院"}, {"detail": 1, "address": "北京市海淀区西三环中路19号院东区19号楼", "uid": "3550c7376331f6c840afe610", "detail_info": {"navi_location": {"lat": 39.910793035706, "lng": 116.31624273589}, "type": "house", "detail_url": "http://api.map.baidu.com/place/detail?uid=3550c7376331f6c840afe610&output=html&source=placeapi_v2", "image_num": "2", "tag": "房地产;住宅区"}, "street_id": "3550c7376331f6c840afe610", "location": {"lat": 39.910793, "lng": 116.316243}, "name": "西三环中路19号院东区19号楼"}, {"detail": 1, "address": "北京市海淀区西三环中路19号院东区10号楼", "uid": "8ac653b3cc2f309c7369d373", "detail_info": {"navi_location": {"lat": 39.905779355554, "lng": 116.31616009178}, "type": "house", "detail_url": "http://api.map.baidu.com/place/detail?uid=8ac653b3cc2f309c7369d373&output=html&source=placeapi_v2", "image_num": "1", "tag": "房地产;住宅区"}, "street_id": "8ac653b3cc2f309c7369d373", "location": {"lat": 39.905792, "lng": 116.316209}, "name": "西三环中路19号院东区10号楼"}, {"detail": 1, "address": "北京市海淀区翠微路17号院1号楼", "uid": "2aa930a25cc62c05bb17e70d", "detail_info": {"navi_location": {"lat": 39.914098112601, "lng": 116.30821637615}, "type": "house", "detail_url": "http://api.map.baidu.com/place/detail?uid=2aa930a25cc62c05bb17e70d&output=html&source=placeapi_v2", "image_num": "4", "tag": "房地产;住宅区"}, "street_id": "2aa930a25cc62c05bb17e70d", "location": {"lat": 39.914323, "lng": 116.308226}, "name": "翠微路17号院1号楼"}, {"detail": 1, "address": "翠微路3", "uid": "6edba5ea9b8a729b593ac82b", "detail_info": {"navi_location": {"lat": 39.914771428701, "lng": 116.30860697376}, "image_num": "38", "type": "house", "detail_url": "http://api.map.baidu.com/place/detail?uid=6edba5ea9b8a729b593ac82b&output=html&source=placeapi_v2", "tag": "房地产;住宅区", "price": "87831.0"}, "street_id": "6edba5ea9b8a729b593ac82b", "location": {"lat": 39.914929, "lng": 116.308017}, "name": "翠微路3号院"}, {"detail": 1, "address": "北京市海淀区复兴路14号院21号楼", "uid": "3aa0654abd714e1d8d772778", "detail_info": {"navi_location": {"lat": 39.907100299335, "lng": 116.31745688561}, "type": "house", "detail_url": "http://api.map.baidu.com/place/detail?uid=3aa0654abd714e1d8d772778&output=html&source=placeapi_v2", "image_num": "2", "tag": "房地产;住宅区"}, "street_id": "3aa0654abd714e1d8d772778", "location": {"lat": 39.9071, "lng": 116.317457}, "name": "复兴路14号院21号楼"}, {"detail": 1, "address": "北京市海淀区西三环中路19号院东区4号楼", "uid": "e02b52bdf0d046eabea240fa", "detail_info": {"navi_location": {"lat": 39.908302638194, "lng": 116.31603684426}, "type": "house", "detail_url": "http://api.map.baidu.com/place/detail?uid=e02b52bdf0d046eabea240fa&output=html&source=placeapi_v2", "image_num": "2", "tag": "房地产;住宅区"}, "street_id": "e02b52bdf0d046eabea240fa", "location": {"lat": 39.908265, "lng": 116.315575}, "name": "西三环中路19号院东区4号楼"}, {"detail": 1, "address": "北京市海淀区西三环中路19号院东区15号楼", "uid": "9ef93a893a0dc96214c8f69c", "detail_info": {"navi_location": {"lat": 39.905112178555, "lng": 116.31651194817}, "type": "house", "detail_url": "http://api.map.baidu.com/place/detail?uid=9ef93a893a0dc96214c8f69c&output=html&source=placeapi_v2", "image_num": "3", "tag": "房地产;住宅区"}, "street_id": "9ef93a893a0dc96214c8f69c", "location": {"lat": 39.905359, "lng": 116.316206}, "name": "西三环中路19号院东区15号楼"}, {"detail": 1, "address": "北京市海淀区复兴路甲18号", "uid": "23fb8487f6f6539e8c772754", "detail_info": {"navi_location": {"lat": 39.913406375024, "lng": 116.31080803426}, "type": "house", "detail_url": "http://api.map.baidu.com/place/detail?uid=23fb8487f6f6539e8c772754&output=html&source=placeapi_v2", "image_num": "2", "tag": "房地产;住宅区"}, "street_id": "23fb8487f6f6539e8c772754", "location": {"lat": 39.913119, "lng": 116.309789}, "name": "复兴路甲18号院"}, {"detail": 1, "address": "北京市海淀区羊坊店路3号", "uid": "c8d0339b4f626c6ed813182a", "detail_info": {"navi_location": {"lat": 39.911061428737, "lng": 116.32761434671}, "image_num": "11", "type": "house", "detail_url": "http://api.map.baidu.com/place/detail?uid=c8d0339b4f626c6ed813182a&output=html&source=placeapi_v2", "tag": "房地产;住宅区", "price": "57836.0", "overall_rating": "4.0"}, "street_id": "c8d0339b4f626c6ed813182a", "location": {"lat": 39.911167, "lng": 116.325728}, "name": "羊坊店路3号院"}, {"detail": 1, "address": "北京市海淀区羊坊店西路", "uid": "356a9ca69f6fba5f0e3dda80", "detail_info": {"navi_location": {"lat": 39.907767424164, "lng": 116.32347967012}, "image_num": "1", "type": "house", "detail_url": "http://api.map.baidu.com/place/detail?uid=356a9ca69f6fba5f0e3dda80&output=html&source=placeapi_v2", "tag": "房地产;住宅区", "overall_rating": "4.0"}, "street_id": "356a9ca69f6fba5f0e3dda80", "location": {"lat": 39.907992, "lng": 116.324406}, "name": "海淀区羊坊店15号"}, {"detail": 1, "address": "羊坊店西路与铁医路交叉口东150米", "uid": "54578bc1521e8cb0aaf0cd4e", "detail_info": {"navi_location": {"lat": 39.906402574674, "lng": 116.3245269093}, "image_num": "29", "type": "house", "detail_url": "http://api.map.baidu.com/place/detail?uid=54578bc1521e8cb0aaf0cd4e&output=html&source=placeapi_v2", "tag": "房地产;住宅区", "price": "51136.0"}, "street_id": "54578bc1521e8cb0aaf0cd4e", "location": {"lat": 39.906706, "lng": 116.324064}, "name": "羊坊店17号院"}, {"detail": 1, "address": "北京市海淀区羊坊店15号院9号楼", "uid": "a1f966034d8ad6c96f20b982", "detail_info": {"navi_location": {"lat": 39.908274134866, "lng": 116.32372355468}, "type": "house", "detail_url": "http://api.map.baidu.com/place/detail?uid=a1f966034d8ad6c96f20b982&output=html&source=placeapi_v2", "image_num": "1", "tag": "房地产;住宅区"}, "street_id": "a1f966034d8ad6c96f20b982", "location": {"lat": 39.908198, "lng": 116.323676}, "name": "羊坊店15号院9号楼"}, {"detail": 1, "address": "海淀区羊坊店路15号", "uid": "4a3a6b31f3ff5d800782c2b3", "detail_info": {"navi_location": {"lat": 39.907881209257, "lng": 116.32597163698}, "type": "house", "detail_url": "http://api.map.baidu.com/place/detail?uid=4a3a6b31f3ff5d800782c2b3&output=html&source=placeapi_v2", "image_num": "1", "tag": "房地产;住宅区"}, "street_id": "4a3a6b31f3ff5d800782c2b3", "location": {"lat": 39.908319, "lng": 116.326118}, "name": "测绘院北楼"}, {"detail": 1, "address": "北京市海淀区羊坊店17号院8号", "uid": "27cbdfc0d98c7da1abf7293e", "detail_info": {"navi_location": {"lat": 39.906381866152, "lng": 116.32461454439}, "type": "house", "detail_url": "http://api.map.baidu.com/place/detail?uid=27cbdfc0d98c7da1abf7293e&output=html&source=placeapi_v2", "image_num": "1", "tag": "房地产;住宅区"}, "street_id": "27cbdfc0d98c7da1abf7293e", "location": {"lat": 39.906936, "lng": 116.324148}, "name": "羊坊店17号院-8号楼"}, {"detail": 1, "address": "羊坊店路3号院5号", "uid": "677f3ff073696263e812e4d1", "detail_info": {"navi_location": {"lat": 39.911067635637, "lng": 116.32746958478}, "type": "house", "detail_url": "http://api.map.baidu.com/place/detail?uid=677f3ff073696263e812e4d1&output=html&source=placeapi_v2", "image_num": "1", "tag": "房地产;住宅区"}, "street_id": "677f3ff073696263e812e4d1", "location": {"lat": 39.910594, "lng": 116.327149}, "name": "新华社皇亭子宿舍-5号楼"}, {"detail": 1, "address": "北京市海淀区复兴路14号院34号", "uid": "dde9ce67b626988738221cd4", "detail_info": {"navi_location": {"lat": 39.905502613438, "lng": 116.31835402333}, "type": "house", "detail_url": "http://api.map.baidu.com/place/detail?uid=dde9ce67b626988738221cd4&output=html&source=placeapi_v2", "image_num": "1", "tag": "房地产;住宅区"}, "street_id": "dde9ce67b626988738221cd4", "location": {"lat": 39.905449, "lng": 116.318406}, "name": "复兴路14号院-34号楼"}, {"detail": 1, "address": "北京市海淀区羊坊店路3号院9号", "uid": "8c08767496875d543310af83", "detail_info": {"navi_location": {"lat": 39.911194101687, "lng": 116.32342806337}, "type": "house", "detail_url": "http://api.map.baidu.com/place/detail?uid=8c08767496875d543310af83&output=html&source=placeapi_v2", "image_num": "1", "tag": "房地产;住宅区"}, "street_id": "8c08767496875d543310af83", "location": {"lat": 39.911011, "lng": 116.324858}, "name": "羊坊店路3号院-9号楼"}, {"detail": 1, "address": "羊坊店3号院", "uid": "7e3cbe03c1b81b063717dc4d", "detail_info": {"navi_location": {"lat": 39.910181202516, "lng": 116.32555007927}, "image_num": "7", "type": "house", "detail_url": "http://api.map.baidu.com/place/detail?uid=7e3cbe03c1b81b063717dc4d&output=html&source=placeapi_v2", "tag": "房地产;住宅区", "price": "54616.0"}, "street_id": "7e3cbe03c1b81b063717dc4d", "location": {"lat": 39.910181, "lng": 116.32555}, "name": "新华社社区"}, {"detail": 1, "address": "北京市海淀区北蜂窝5号院1号", "uid": "fb683021ffb547df78f796ef", "detail_info": {"navi_location": {"lat": 39.909670643703, "lng": 116.335537298}, "image_num": "45", "type": "house", "detail_url": "http://api.map.baidu.com/place/detail?uid=fb683021ffb547df78f796ef&output=html&source=placeapi_v2", "tag": "房地产;住宅区", "price": "52120.0", "overall_rating": "5"}, "street_id": "fb683021ffb547df78f796ef", "location": {"lat": 39.909793, "lng": 116.333675}, "name": "北蜂窝路5号院"}, {"detail": 1, "address": "茂林居3-1", "uid": "d991e116b17b08551e3894b6", "detail_info": {"navi_location": {"lat": 39.913776286558, "lng": 116.33837500828}, "image_num": "142", "type": "house", "detail_url": "http://api.map.baidu.com/place/detail?uid=d991e116b17b08551e3894b6&output=html&source=placeapi_v2", "tag": "房地产;住宅区", "price": "91012.0", "overall_rating": "3.8"}, "street_id": "d991e116b17b08551e3894b6", "telephone": "(010)68515877", "location": {"lat": 39.91441, "lng": 116.336892}, "name": "茂林居小区"}, {"detail": 1, "address": "北京市海淀区中共中央对外联络部宿舍10号楼2单元603", "uid": "5e53af1a33a85f224151c0d8", "detail_info": {"navi_location": {"lat": 39.911052794933, "lng": 116.33567644912}, "image_num": "28", "type": "house", "detail_url": "http://api.map.baidu.com/place/detail?uid=5e53af1a33a85f224151c0d8&output=html&source=placeapi_v2", "tag": "房地产;住宅区", "price": "112675.0", "overall_rating": "4.0"}, "street_id": "5e53af1a33a85f224151c0d8", "location": {"lat": 39.911007, "lng": 116.337622}, "name": "复兴路乙4号院"}, {"detail": 1, "address": "军事博物馆对面羊坊店东路5号", "uid": "3810c879162f2c8b9d09f7b6", "detail_info": {"navi_location": {"lat": 39.910093618185, "lng": 116.32974091792}, "image_num": "60", "type": "house", "detail_url": "http://api.map.baidu.com/place/detail?uid=3810c879162f2c8b9d09f7b6&output=html&source=placeapi_v2", "tag": "房地产;住宅区", "price": "62176.0", "overall_rating": "4"}, "street_id": "3810c879162f2c8b9d09f7b6", "location": {"lat": 39.910318, "lng": 116.330435}, "name": "博望园"}, {"detail": 1, "address": "会城门", "uid": "a3ed868ca14038e32d47334c", "detail_info": {"navi_location": {"lat": 39.907928496475, "lng": 116.33037481798}, "image_num": "93", "type": "house", "detail_url": "http://api.map.baidu.com/place/detail?uid=a3ed868ca14038e32d47334c&output=html&source=placeapi_v2", "tag": "房地产;住宅区", "price": "84607.0", "overall_rating": "4.0"}, "street_id": "a3ed868ca14038e32d47334c", "location": {"lat": 39.9076, "lng": 116.332431}, "name": "乔建里小区"}, {"detail": 1, "address": "北蜂窝路空军100号院", "uid": "7fd72311943dc09f5dbe86b6", "detail_info": {"navi_location": {"lat": 39.906186143871, "lng": 116.3285892678}, "image_num": "61", "type": "house", "detail_url": "http://api.map.baidu.com/place/detail?uid=7fd72311943dc09f5dbe86b6&output=html&source=placeapi_v2", "tag": "房地产;住宅区", "price": "77504.0", "overall_rating": "4.0"}, "street_id": "7fd72311943dc09f5dbe86b6", "telephone": "15146663366", "location": {"lat": 39.907024, "lng": 116.328733}, "name": "北蜂窝100号院"}, {"detail": 1, "address": "北京市海淀区北蜂窝路22号", "uid": "9fbfeef2cb07f445ece4a5b6", "detail_info": {"navi_location": {"lat": 39.907365276127, "lng": 116.33575628333}, "image_num": "38", "type": "house", "detail_url": "http://api.map.baidu.com/place/detail?uid=9fbfeef2cb07f445ece4a5b6&output=html&source=placeapi_v2", "tag": "房地产;住宅区", "price": "52753.0", "overall_rating": "4.0"}, "street_id": "9fbfeef2cb07f445ece4a5b6", "location": {"lat": 39.906793, "lng": 116.336038}, "name": "铁东住宅小区"}, {"detail": 1, "address": "北京市海淀区羊坊店路16号", "uid": "ec089722a0e868e0e50738e8", "detail_info": {"navi_location": {"lat": 39.909291234402, "lng": 116.32813171139}, "image_num": "25", "type": "house", "detail_url": "http://api.map.baidu.com/place/detail?uid=ec089722a0e868e0e50738e8&output=html&source=placeapi_v2", "tag": "房地产;住宅区", "price": "50000.0", "overall_rating": "5"}, "street_id": "ec089722a0e868e0e50738e8", "location": {"lat": 39.908783, "lng": 116.329185}, "name": "复兴路12号院"}, {"detail": 1, "address": "北蜂窝5号", "uid": "8da561bb8916f2b60482c270", "detail_info": {"navi_location": {"lat": 39.909663616046, "lng": 116.33554031541}, "image_num": "27", "type": "house", "detail_url": "http://api.map.baidu.com/place/detail?uid=8da561bb8916f2b60482c270&output=html&source=placeapi_v2", "tag": "房地产;住宅区", "price": "57800.0", "overall_rating": "4"}, "street_id": "8da561bb8916f2b60482c270", "location": {"lat": 39.909461, "lng": 116.335299}, "name": "铁道部羊坊店住宅区"}, {"detail": 1, "address": "海淀区羊坊店路16号", "uid": "48eb0058d3f1d1d02fe67be6", "detail_info": {"navi_location": {"lat": 39.909145087941, "lng": 116.32814492098}, "image_num": "12", "type": "house", "detail_url": "http://api.map.baidu.com/place/detail?uid=48eb0058d3f1d1d02fe67be6&output=html&source=placeapi_v2", "tag": "房地产;住宅区", "price": "51486.0"}, "street_id": "48eb0058d3f1d1d02fe67be6", "location": {"lat": 39.909071, "lng": 116.328214}, "name": "羊坊店路十六号院"}, {"detail": 1, "address": "北蜂窝路与会城门东路交汇处", "uid": "f213326ffad37c88a8f72928", "detail_info": {"navi_location": {"lat": 39.908344471026, "lng": 116.33806831959}, "image_num": "120", "type": "house", "detail_url": "http://api.map.baidu.com/place/detail?uid=f213326ffad37c88a8f72928&output=html&source=placeapi_v2", "tag": "房地产;住宅区", "price": "83796.0", "overall_rating": "4.0"}, "street_id": "f213326ffad37c88a8f72928", "location": {"lat": 39.908893, "lng": 116.338337}, "name": "会城门小区"}, {"detail": 1, "address": "海淀区海淀北蜂窝中路22号", "uid": "fe9fa9889589f782d13ce3ce", "detail_info": {"navi_location": {"lat": 39.907365276127, "lng": 116.33575628333}, "image_num": "50", "type": "house", "detail_url": "http://api.map.baidu.com/place/detail?uid=fe9fa9889589f782d13ce3ce&output=html&source=placeapi_v2", "tag": "房地产;住宅区", "price": "56698.0", "overall_rating": "2.0"}, "street_id": "fe9fa9889589f782d13ce3ce", "location": {"lat": 39.907491, "lng": 116.338116}, "name": "北蜂窝路22号院"}, {"detail": 1, "address": "木樨地南里1号", "uid": "5946adf7371b4880f7b916f3", "detail_info": {"navi_location": {"lat": 39.908259245332, "lng": 116.34700710619}, "image_num": "6", "type": "house", "detail_url": "http://api.map.baidu.com/place/detail?uid=5946adf7371b4880f7b916f3&output=html&source=placeapi_v2", "tag": "房地产;住宅区", "overall_rating": "4.0"}, "street_id": "5946adf7371b4880f7b916f3", "location": {"lat": 39.907531, "lng": 116.346458}, "name": "公安大学住宅小区东院"}, {"detail": 1, "address": "白云路路口以西100米,首都博物馆西行200米", "uid": "92b806d2876282fe79b55c01", "detail_info": {"navi_location": {"lat": 39.909329463224, "lng": 116.34288381923}, "image_num": "51", "type": "house", "detail_url": "http://api.map.baidu.com/place/detail?uid=92b806d2876282fe79b55c01&output=html&source=placeapi_v2", "tag": "房地产;住宅区", "price": "65838.0", "overall_rating": "4.0"}, "street_id": "92b806d2876282fe79b55c01", "location": {"lat": 39.910429, "lng": 116.344599}, "name": "木樨地北里小区"}, {"detail": 1, "address": "北京市西城区木樨地北里20号楼", "uid": "79287266b994c0cb631809b3", "detail_info": {"navi_location": {"lat": 39.908975177868, "lng": 116.34733434811}, "type": "house", "detail_url": "http://api.map.baidu.com/place/detail?uid=79287266b994c0cb631809b3&output=html&source=placeapi_v2", "image_num": "3", "tag": "房地产;住宅区"}, "street_id": "79287266b994c0cb631809b3", "location": {"lat": 39.909111, "lng": 116.347084}, "name": "木樨地北里-20号楼"}, {"detail": 1, "address": "北京市西城区三里河三区甲38号楼", "uid": "1a775a68e3f41e19d4851fbf", "detail_info": {"navi_location": {"lat": 39.914974722269, "lng": 116.34472226882}, "type": "house", "detail_url": "http://api.map.baidu.com/place/detail?uid=1a775a68e3f41e19d4851fbf&output=html&source=placeapi_v2", "image_num": "3", "tag": "房地产;住宅区"}, "street_id": "1a775a68e3f41e19d4851fbf", "location": {"lat": 39.914781, "lng": 116.344312}, "name": "三里河三区-38号楼"}, {"detail": 1, "address": "木樨地南里1号", "uid": "7d33a62387d32d7e6849f3e5", "detail_info": {"navi_location": {"lat": 39.908450491473, "lng": 116.34358944898}, "type": "house", "detail_url": "http://api.map.baidu.com/place/detail?uid=7d33a62387d32d7e6849f3e5&output=html&source=placeapi_v2", "image_num": "2", "tag": "房地产;住宅区"}, "street_id": "7d33a62387d32d7e6849f3e5", "telephone": "010-83905550", "location": {"lat": 39.907641, "lng": 116.343542}, "name": "公安大学住宅小区-西院"}, {"detail": 1, "address": "北京市西城区三里河三区11号楼", "uid": "20677fad7c449483ad31e54f", "detail_info": {"navi_location": {"lat": 39.9146592388, "lng": 116.34609008359}, "type": "house", "detail_url": "http://api.map.baidu.com/place/detail?uid=20677fad7c449483ad31e54f&output=html&source=placeapi_v2", "image_num": "3", "tag": "房地产;住宅区"}, "street_id": "20677fad7c449483ad31e54f", "location": {"lat": 39.914662, "lng": 116.347208}, "name": "三里河三区-11号楼"}, {"detail": 1, "address": "北京市西城区木樨地北里19号楼", "uid": "eb6f103f2a72b38bf4eafcd1", "detail_info": {"navi_location": {"lat": 39.909603968617, "lng": 116.34733473798}, "type": "house", "detail_url": "http://api.map.baidu.com/place/detail?uid=eb6f103f2a72b38bf4eafcd1&output=html&source=placeapi_v2", "image_num": "2", "tag": "房地产;住宅区"}, "street_id": "eb6f103f2a72b38bf4eafcd1", "location": {"lat": 39.909668, "lng": 116.347075}, "name": "木樨地北里-19号楼"}, {"detail": 1, "address": "北京市西城区三里河三区15号楼", "uid": "7a5500441b08a2828515415f", "detail_info": {"navi_location": {"lat": 39.914074314837, "lng": 116.34686063658}, "type": "house", "detail_url": "http://api.map.baidu.com/place/detail?uid=7a5500441b08a2828515415f&output=html&source=placeapi_v2", "image_num": "3", "tag": "房地产;住宅区"}, "street_id": "7a5500441b08a2828515415f", "location": {"lat": 39.913992, "lng": 116.346497}, "name": "三里河三区-15号楼"}, {"detail": 1, "address": "北京市西城区真武庙路二条", "uid": "4cf8d24e3b74c4e49cf77901", "detail_info": {"navi_location": {"lat": 39.91097764761, "lng": 116.35587969038}, "image_num": "62", "type": "house", "detail_url": "http://api.map.baidu.com/place/detail?uid=4cf8d24e3b74c4e49cf77901&output=html&source=placeapi_v2", "tag": "房地产;住宅区", "price": "92253.0", "overall_rating": "4.0"}, "street_id": "4cf8d24e3b74c4e49cf77901", "telephone": "13141369537", "location": {"lat": 39.910319, "lng": 116.356005}, "name": "真武家园"}, {"detail": 1, "address": "北京市西城区白云路西里13号", "uid": "9e16ed002e51c50dd2f49e97", "detail_info": {"navi_location": {"lat": 39.908078659207, "lng": 116.34834581856}, "image_num": "57", "type": "house", "detail_url": "http://api.map.baidu.com/place/detail?uid=9e16ed002e51c50dd2f49e97&output=html&source=placeapi_v2", "tag": "房地产;住宅区", "price": "65270.0", "overall_rating": "4"}, "street_id": "9e16ed002e51c50dd2f49e97", "location": {"lat": 39.90665, "lng": 116.347906}, "name": "汽南小区"}, {"detail": 1, "address": "真武庙6号(西二环复兴门外金融街与长安街交汇处)", "uid": "cd005bb0bbd5c626a8175a1d", "detail_info": {"navi_location": {"lat": 39.909874701764, "lng": 116.35403664056}, "image_num": "3", "type": "house", "detail_url": "http://api.map.baidu.com/place/detail?uid=cd005bb0bbd5c626a8175a1d&output=html&source=placeapi_v2", "tag": "房地产;住宅区", "price": "80083.0", "overall_rating": "4.0"}, "street_id": "cd005bb0bbd5c626a8175a1d", "telephone": "(010)68028888", "location": {"lat": 39.910297, "lng": 116.353363}, "name": "金融世家"}, {"detail": 1, "address": "北京市西城区白云路西里甲2号", "uid": "18165334c57c5604fb2d6101", "detail_info": {"navi_location": {"lat": 39.90885232253, "lng": 116.34829808889}, "image_num": "39", "type": "house", "detail_url": "http://api.map.baidu.com/place/detail?uid=18165334c57c5604fb2d6101&output=html&source=placeapi_v2", "tag": "房地产;住宅区", "price": "72054.0", "overall_rating": "5"}, "street_id": "18165334c57c5604fb2d6101", "location": {"lat": 39.910217, "lng": 116.348462}, "name": "汽北小区"}, {"detail": 1, "address": "真武庙路四条8号", "uid": "4ea3f2f10164dcaaaecb6601", "detail_info": {"navi_location": {"lat": 39.908817958032, "lng": 116.35430701434}, "image_num": "120", "type": "house", "detail_url": "http://api.map.baidu.com/place/detail?uid=4ea3f2f10164dcaaaecb6601&output=html&source=placeapi_v2", "tag": "房地产;住宅区", "price": "100000.0", "overall_rating": "3"}, "street_id": "4ea3f2f10164dcaaaecb6601", "telephone": "(010)68026666", "location": {"lat": 39.908082, "lng": 116.35372}, "name": "融泽府"}, {"detail": 1, "address": "北京市西城区真武庙四里4号", "uid": "d24e48ebe0f737b7afee7a32", "detail_info": {"navi_location": {"lat": 39.909469292452, "lng": 116.35491682455}, "image_num": "58", "type": "house", "detail_url": "http://api.map.baidu.com/place/detail?uid=d24e48ebe0f737b7afee7a32&output=html&source=placeapi_v2", "tag": "房地产;住宅区", "price": "69329.0", "overall_rating": "4.0"}, "street_id": "d24e48ebe0f737b7afee7a32", "location": {"lat": 39.909181, "lng": 116.354368}, "name": "真武庙四里小区"}, {"detail": 1, "address": "真武庙路二条7", "uid": "f6ce8af66f455530b9df8fe0", "detail_info": {"navi_location": {"lat": 39.911603992048, "lng": 116.35483698854}, "image_num": "4", "type": "house", "detail_url": "http://api.map.baidu.com/place/detail?uid=f6ce8af66f455530b9df8fe0&output=html&source=placeapi_v2", "tag": "房地产;住宅区", "overall_rating": "4.0"}, "street_id": "f6ce8af66f455530b9df8fe0", "location": {"lat": 39.911562, "lng": 116.354219}, "name": "真武庙路二条7号院"}, {"detail": 1, "address": "真武庙四条六里3号楼", "uid": "bd70de986b988d5c631c6781", "detail_info": {"navi_location": {"lat": 39.907667985942, "lng": 116.35658676641}, "image_num": "3", "type": "house", "detail_url": "http://api.map.baidu.com/place/detail?uid=bd70de986b988d5c631c6781&output=html&source=placeapi_v2", "tag": "房地产;住宅区", "overall_rating": "4.0"}, "street_id": "bd70de986b988d5c631c6781", "location": {"lat": 39.907442, "lng": 116.356354}, "name": "真武庙六里-3号楼"}, {"detail": 1, "address": "真武庙六里附近", "uid": "237ffd51b6bba61cd5b74e02", "detail_info": {"navi_location": {"lat": 39.907627999478, "lng": 116.35658680503}, "image_num": "3", "type": "house", "detail_url": "http://api.map.baidu.com/place/detail?uid=237ffd51b6bba61cd5b74e02&output=html&source=placeapi_v2", "tag": "房地产;住宅区", "overall_rating": "4.0"}, "street_id": "237ffd51b6bba61cd5b74e02", "location": {"lat": 39.90783, "lng": 116.356275}, "name": "真武庙六里-2号楼"}, {"detail": 1, "address": "北京市西城区真武庙二里甲10号", "uid": "c732d45b3f364314091cc7af", "detail_info": {"navi_location": {"lat": 39.910665023211, "lng": 116.35111549926}, "type": "house", "detail_url": "http://api.map.baidu.com/place/detail?uid=c732d45b3f364314091cc7af&output=html&source=placeapi_v2", "image_num": "4", "tag": "房地产;住宅区"}, "street_id": "c732d45b3f364314091cc7af", "location": {"lat": 39.910793, "lng": 116.351375}, "name": "真武庙二里-甲10号楼"}, {"detail": 1, "address": "北京市石景山区古城路49号", "uid": "37ee4587e3732b94f7e73bc8", "detail_info": {"navi_location": {"lat": 39.920215225114, "lng": 116.1981676175}, "image_num": "8", "type": "house", "detail_url": "http://api.map.baidu.com/place/detail?uid=37ee4587e3732b94f7e73bc8&output=html&source=placeapi_v2", "tag": "房地产;住宅区", "overall_rating": "4.0"}, "street_id": "37ee4587e3732b94f7e73bc8", "telephone": "(010)88292604", "location": {"lat": 39.91995, "lng": 116.19768}, "name": "首钢古城单身宿舍"}, {"detail": 1, "address": "北京市石景山区古城西路8号", "uid": "50fb64ff7222e65de9f853dd", "detail_info": {"navi_location": {"lat": 39.920206965337, "lng": 116.19125887891}, "image_num": "31", "type": "house", "detail_url": "http://api.map.baidu.com/place/detail?uid=50fb64ff7222e65de9f853dd&output=html&source=placeapi_v2", "tag": "房地产;住宅区", "price": "41523.0", "overall_rating": "5"}, "street_id": "50fb64ff7222e65de9f853dd", "location": {"lat": 39.91992, "lng": 116.19179}, "name": "古城如意小区"}, {"detail": 1, "address": "北京市石景山区古城南路16栋", "uid": "3ea6803a3c1e94f0cac3dba7", "detail_info": {"navi_location": {"lat": 39.915685758526, "lng": 116.19567272818}, "image_num": "38", "type": "house", "detail_url": "http://api.map.baidu.com/place/detail?uid=3ea6803a3c1e94f0cac3dba7&output=html&source=placeapi_v2", "tag": "房地产;住宅区", "price": "33856.0", "overall_rating": "4.0"}, "street_id": "3ea6803a3c1e94f0cac3dba7", "location": {"lat": 39.915427, "lng": 116.196322}, "name": "古城南路小区"}, {"detail": 1, "address": "北京市石景山区古城北路甲3号", "uid": "f1f5cac594b5b19836b06cdd", "detail_info": {"navi_location": {"lat": 39.922704407445, "lng": 116.19314380324}, "image_num": "1", "type": "house", "detail_url": "http://api.map.baidu.com/place/detail?uid=f1f5cac594b5b19836b06cdd&output=html&source=placeapi_v2", "tag": "房地产;住宅区", "price": "33570.0", "overall_rating": "4.0"}, "street_id": "f1f5cac594b5b19836b06cdd", "location": {"lat": 39.922299, "lng": 116.196425}, "name": "首钢古北居民区"}, {"detail": 1, "address": "古城", "uid": "5394df427703c672acee7a07", "detail_info": {"navi_location": {"lat": 39.925377950406, "lng": 116.19308187496}, "image_num": "1", "type": "house", "detail_url": "http://api.map.baidu.com/place/detail?uid=5394df427703c672acee7a07&output=html&source=placeapi_v2", "tag": "房地产;住宅区", "overall_rating": "4.0"}, "street_id": "5394df427703c672acee7a07", "location": {"lat": 39.924846, "lng": 116.192285}, "name": "特钢厂东门小区"}, {"detail": 1, "address": "石景山区古城大街9号", "uid": "d5f93c0ef4835d45ecdfcab6", "detail_info": {"navi_location": {"lat": 39.920613053406, "lng": 116.19218034094}, "image_num": "2", "type": "house", "detail_url": "http://api.map.baidu.com/place/detail?uid=d5f93c0ef4835d45ecdfcab6&output=html&source=placeapi_v2", "tag": "房地产;住宅区", "overall_rating": "3"}, "street_id": "d5f93c0ef4835d45ecdfcab6", "telephone": "(010)88294193", "location": {"lat": 39.921513, "lng": 116.192696}, "name": "古城西路小区"}, {"detail": 1, "address": "北京市石景山区古城北路15号", "uid": "a1418eb418916801eae582af", "detail_info": {"navi_location": {"lat": 39.923172226808, "lng": 116.19873716628}, "image_num": "10", "type": "house", "detail_url": "http://api.map.baidu.com/place/detail?uid=a1418eb418916801eae582af&output=html&source=placeapi_v2", "tag": "房地产;住宅区", "price": "28500.0", "overall_rating": "3"}, "street_id": "a1418eb418916801eae582af", "location": {"lat": 39.923263, "lng": 116.19776}, "name": "天翔社区"}, {"detail": 1, "address": "古城西路7号", "uid": "d219bb1d5527448bf50e77dd", "detail_info": {"navi_location": {"lat": 39.918764981514, "lng": 116.19311239668}, "image_num": "3", "type": "house", "detail_url": "http://api.map.baidu.com/place/detail?uid=d219bb1d5527448bf50e77dd&output=html&source=placeapi_v2", "tag": "房地产;住宅区", "overall_rating": "4.0"}, "street_id": "d219bb1d5527448bf50e77dd", "location": {"lat": 39.918762, "lng": 116.192379}, "name": "首钢古西居民小区"}, {"detail": 1, "address": "古城路32号", "uid": "6eb2778d36c997c60e3dda9c", "detail_info": {"navi_location": {"lat": 39.916990088825, "lng": 116.19524597917}, "image_num": "86", "type": "house", "detail_url": "http://api.map.baidu.com/place/detail?uid=6eb2778d36c997c60e3dda9c&output=html&source=placeapi_v2", "tag": "房地产;住宅区", "price": "40715.0", "overall_rating": "4"}, "street_id": "6eb2778d36c997c60e3dda9c", "telephone": "(010)68873669", "location": {"lat": 39.917327, "lng": 116.195163}, "name": "天娇美地"}, {"detail": 1, "address": "北京市石景山区特钢东门楼6号楼", "uid": "39b9759dfb26153e8d772708", "detail_info": {"navi_location": {"lat": 39.922689184569, "lng": 116.19242643353}, "type": "house", "detail_url": "http://api.map.baidu.com/place/detail?uid=39b9759dfb26153e8d772708&output=html&source=placeapi_v2", "image_num": "1", "tag": "房地产;住宅区"}, "street_id": "39b9759dfb26153e8d772708", "location": {"lat": 39.923415, "lng": 116.19268}, "name": "特钢东门大楼6号楼"}, {"detail": 1, "address": "北京市石景山区八角北里42号楼", "uid": "98741edaa9a46651f82213c9", "detail_info": {"navi_location": {"lat": 39.921067850183, "lng": 116.20718020951}, "image_num": "3", "type": "house", "detail_url": "http://api.map.baidu.com/place/detail?uid=98741edaa9a46651f82213c9&output=html&source=placeapi_v2", "tag": "房地产;住宅区", "overall_rating": "4.0"}, "street_id": "98741edaa9a46651f82213c9", "location": {"lat": 39.921002, "lng": 116.206774}, "name": "八角北里-42号楼"}, {"detail": 1, "address": "石景山八角南路八角西街路口以西60米路北", "uid": "571658106da7ef06f33cba63", "detail_info": {"navi_location": {"lat": 39.919569479572, "lng": 116.20290884676}, "image_num": "120", "type": "house", "detail_url": "http://api.map.baidu.com/place/detail?uid=571658106da7ef06f33cba63&output=html&source=placeapi_v2", "tag": "房地产;住宅区", "price": "43565.0", "overall_rating": "5"}, "street_id": "571658106da7ef06f33cba63", "location": {"lat": 39.918638, "lng": 116.204256}, "name": "八角路小区"}, {"detail": 1, "address": "石景山八角南路八角西街路口以西60米路北", "uid": "cac5fc7612e70ff32cb96ddd", "detail_info": {"navi_location": {"lat": 39.91961960471, "lng": 116.20290076201}, "image_num": "2", "type": "house", "detail_url": "http://api.map.baidu.com/place/detail?uid=cac5fc7612e70ff32cb96ddd&output=html&source=placeapi_v2", "tag": "房地产;住宅区", "overall_rating": "4.0"}, "street_id": "cac5fc7612e70ff32cb96ddd", "location": {"lat": 39.918372, "lng": 116.202795}, "name": "首钢八角居民区"}, {"detail": 1, "address": "北京市石景山区八角北里41号楼", "uid": "0e9f72c11dc7c17db13c81d1", "detail_info": {"navi_location": {"lat": 39.921944050989, "lng": 116.20660103422}, "type": "house", "detail_url": "http://api.map.baidu.com/place/detail?uid=0e9f72c11dc7c17db13c81d1&output=html&source=placeapi_v2", "image_num": "2", "tag": "房地产;住宅区"}, "street_id": "0e9f72c11dc7c17db13c81d1", "location": {"lat": 39.921645, "lng": 116.206598}, "name": "八角北里-41号楼"}, {"detail": 1, "address": "八角路八角北里(南三门)附近", "uid": "9e00ce15acbf58c7fb2d6149", "detail_info": {"navi_location": {"lat": 39.920668080422, "lng": 116.20771979468}, "type": "house", "detail_url": "http://api.map.baidu.com/place/detail?uid=9e00ce15acbf58c7fb2d6149&output=html&source=placeapi_v2", "image_num": "2", "tag": "房地产;住宅区"}, "street_id": "9e00ce15acbf58c7fb2d6149", "location": {"lat": 39.920665, "lng": 116.207634}, "name": "八角北里-36号楼"}, {"detail": 1, "address": "北京市石景山区古城北路15号", "uid": "5273b17ae0581ab2774ff1ef", "detail_info": {"navi_location": {"lat": 39.923171227058, "lng": 116.19873716628}, "type": "house", "detail_url": "http://api.map.baidu.com/place/detail?uid=5273b17ae0581ab2774ff1ef&output=html&source=placeapi_v2", "image_num": "1", "tag": "房地产;住宅区"}, "street_id": "5273b17ae0581ab2774ff1ef", "location": {"lat": 39.923026, "lng": 116.197936}, "name": "古城北路15栋院"}, {"detail": 1, "address": "北京市石景山区八角北里35号楼", "uid": "460d7881140553a46140a9c5", "detail_info": {"navi_location": {"lat": 39.919918125518, "lng": 116.20740269284}, "type": "house", "detail_url": "http://api.map.baidu.com/place/detail?uid=460d7881140553a46140a9c5&output=html&source=placeapi_v2", "image_num": "2", "tag": "房地产;住宅区"}, "street_id": "460d7881140553a46140a9c5", "location": {"lat": 39.920043, "lng": 116.207651}, "name": "八角北里-35号楼"}, {"detail": 1, "address": "北京市石景山区八角北里39号楼", "uid": "4810011482886cf8fd0eb0a1", "detail_info": {"navi_location": {"lat": 39.922782320695, "lng": 116.20631797007}, "type": "house", "detail_url": "http://api.map.baidu.com/place/detail?uid=4810011482886cf8fd0eb0a1&output=html&source=placeapi_v2", "image_num": "1", "tag": "房地产;住宅区"}, "street_id": "4810011482886cf8fd0eb0a1", "location": {"lat": 39.922478, "lng": 116.206279}, "name": "八角北里-39号楼"}, {"detail": 1, "address": "北京市石景山区八角北里45号楼", "uid": "0b4f6aa8e4ecb3682e4733f1", "detail_info": {"navi_location": {"lat": 39.919740693525, "lng": 116.20743398711}, "type": "house", "detail_url": "http://api.map.baidu.com/place/detail?uid=0b4f6aa8e4ecb3682e4733f1&output=html&source=placeapi_v2", "image_num": "2", "tag": "房地产;住宅区"}, "street_id": "0b4f6aa8e4ecb3682e4733f1", "location": {"lat": 39.919841, "lng": 116.206968}, "name": "八角北里-45号楼"}, {"detail": 1, "address": "古城路46", "uid": "946c304246590da52bb97c49", "detail_info": {"navi_location": {"lat": 39.921143653005, "lng": 116.1981307337}, "type": "house", "detail_url": "http://api.map.baidu.com/place/detail?uid=946c304246590da52bb97c49&output=html&source=placeapi_v2", "image_num": "2", "tag": "房地产;住宅区"}, "street_id": "946c304246590da52bb97c49", "location": {"lat": 39.920715, "lng": 116.197929}, "name": "古城路小区-46号院"}, {"detail": 1, "address": "八角北里", "uid": "934de042310fee7e8e772737", "detail_info": {"navi_location": {"lat": 39.922600270209, "lng": 116.21009131045}, "image_num": "131", "type": "house", "detail_url": "http://api.map.baidu.com/place/detail?uid=934de042310fee7e8e772737&output=html&source=placeapi_v2", "tag": "房地产;住宅区", "price": "55374.0", "overall_rating": "4.0"}, "street_id": "934de042310fee7e8e772737", "location": {"lat": 39.921095, "lng": 116.209188}, "name": "八角北里"}, {"detail": 1, "address": "八角东街路口以西50米路北", "uid": "d4034eb3f5f02ef6c03644dd", "detail_info": {"navi_location": {"lat": 39.916615482977, "lng": 116.20901318214}, "image_num": "90", "type": "house", "detail_url": "http://api.map.baidu.com/place/detail?uid=d4034eb3f5f02ef6c03644dd&output=html&source=placeapi_v2", "tag": "房地产;住宅区", "price": "35574.0", "overall_rating": "4.0"}, "street_id": "d4034eb3f5f02ef6c03644dd", "location": {"lat": 39.918118, "lng": 116.210579}, "name": "八角中里小区"}, {"detail": 1, "address": "八角南路与八角西街交口东南角", "uid": "1fbdbf70205d4f283362129b", "detail_info": {"navi_location": {"lat": 39.916551381699, "lng": 116.2093421524}, "image_num": "140", "type": "house", "detail_url": "http://api.map.baidu.com/place/detail?uid=1fbdbf70205d4f283362129b&output=html&source=placeapi_v2", "tag": "房地产;住宅区", "price": "59262.0", "overall_rating": "4"}, "street_id": "1fbdbf70205d4f283362129b", "location": {"lat": 39.916535, "lng": 116.209344}, "name": "八角南里小区"}, {"detail": 1, "address": "石景山建西苑南里", "uid": "4a4b76c2a1b209db631809f9", "detail_info": {"navi_location": {"lat": 39.923821769437, "lng": 116.21349939891}, "image_num": "55", "type": "house", "detail_url": "http://api.map.baidu.com/place/detail?uid=4a4b76c2a1b209db631809f9&output=html&source=placeapi_v2", "tag": "房地产;住宅区", "price": "41532.0", "overall_rating": "3"}, "street_id": "4a4b76c2a1b209db631809f9", "location": {"lat": 39.923975, "lng": 116.214529}, "name": "建西苑南里"}, {"detail": 1, "address": "北京市石景山区时代花园南路28号", "uid": "a74481d6d0f2f83bf503b8e1", "detail_info": {"navi_location": {"lat": 39.923689524181, "lng": 116.21163168431}, "image_num": "96", "type": "house", "detail_url": "http://api.map.baidu.com/place/detail?uid=a74481d6d0f2f83bf503b8e1&output=html&source=placeapi_v2", "tag": "房地产;住宅区", "price": "48165.0", "overall_rating": "4"}, "street_id": "a74481d6d0f2f83bf503b8e1", "telephone": "(010)88937026", "location": {"lat": 39.924214, "lng": 116.2094}, "name": "璟公阁"}, {"detail": 1, "address": "时代花园东街与时代花园南路交汇处东南角", "uid": "0a9fd35f89f2d62dee74f8de", "detail_info": {"navi_location": {"lat": 39.923154620934, "lng": 116.21163300572}, "image_num": "190", "type": "house", "detail_url": "http://api.map.baidu.com/place/detail?uid=0a9fd35f89f2d62dee74f8de&output=html&source=placeapi_v2", "tag": "房地产;住宅区", "price": "47276.0", "overall_rating": "4.0"}, "street_id": "0a9fd35f89f2d62dee74f8de", "telephone": "010-88937777", "location": {"lat": 39.922958, "lng": 116.212236}, "name": "茂华璟上璟"}, {"detail": 1, "address": "北京市石景山区八角中里25号楼", "uid": "6b4333e10c99c1dc28d7ab62", "detail_info": {"navi_location": {"lat": 39.91909498252, "lng": 116.20945970556}, "image_num": "2", "type": "house", "detail_url": "http://api.map.baidu.com/place/detail?uid=6b4333e10c99c1dc28d7ab62&output=html&source=placeapi_v2", "tag": "房地产;住宅区", "overall_rating": "4.0"}, "street_id": "6b4333e10c99c1dc28d7ab62", "location": {"lat": 39.919137, "lng": 116.209146}, "name": "八角中里-25号楼"}, {"detail": 1, "address": "北京市石景山区八角北里37号楼", "uid": "da73bc7a922bbcb0b2077df9", "detail_info": {"navi_location": {"lat": 39.921314776597, "lng": 116.20786310945}, "type": "house", "detail_url": "http://api.map.baidu.com/place/detail?uid=da73bc7a922bbcb0b2077df9&output=html&source=placeapi_v2", "image_num": "2", "tag": "房地产;住宅区"}, "street_id": "da73bc7a922bbcb0b2077df9", "location": {"lat": 39.921155, "lng": 116.208044}, "name": "八角北里-37号楼"}, {"detail": 1, "address": "建西苑中里", "uid": "8a213df710c471645abbbca7", "detail_info": {"navi_location": {"lat": 39.925244124979, "lng": 116.21509158075}, "image_num": "44", "type": "house", "detail_url": "http://api.map.baidu.com/place/detail?uid=8a213df710c471645abbbca7&output=html&source=placeapi_v2", "tag": "房地产;住宅区", "price": "40186.0", "overall_rating": "4.0"}, "street_id": "8a213df710c471645abbbca7", "location": {"lat": 39.925031, "lng": 116.215483}, "name": "建西苑中里"}, {"detail": 1, "address": "北京市石景山区八角北里14号楼", "uid": "c06cf19177a10f595bf6be35", "detail_info": {"navi_location": {"lat": 39.921686673738, "lng": 116.21073891686}, "type": "house", "detail_url": "http://api.map.baidu.com/place/detail?uid=c06cf19177a10f595bf6be35&output=html&source=placeapi_v2", "image_num": "3", "tag": "房地产;住宅区"}, "street_id": "c06cf19177a10f595bf6be35", "location": {"lat": 39.921577, "lng": 116.210845}, "name": "八角北里-14号楼"}, {"detail": 1, "address": "北京市石景山区老山西里甲7号", "uid": "504d6113df1c08aa4657264d", "detail_info": {"navi_location": {"lat": 39.914919785275, "lng": 116.22267037144}, "image_num": "43", "type": "house", "detail_url": "http://api.map.baidu.com/place/detail?uid=504d6113df1c08aa4657264d&output=html&source=placeapi_v2", "tag": "房地产;住宅区", "price": "37565.0", "overall_rating": "5"}, "street_id": "504d6113df1c08aa4657264d", "location": {"lat": 39.915219, "lng": 116.225192}, "name": "老山西里"}, {"detail": 1, "address": "北京市石景山区老山西里甲7号", "uid": "d24e48eb729ba5b4afee7add", "detail_info": {"navi_location": {"lat": 39.916439074511, "lng": 116.22222847969}, "type": "house", "detail_url": "http://api.map.baidu.com/place/detail?uid=d24e48eb729ba5b4afee7add&output=html&source=placeapi_v2", "image_num": "3", "tag": "房地产;住宅区"}, "street_id": "d24e48eb729ba5b4afee7add", "location": {"lat": 39.915296, "lng": 116.223959}, "name": "首钢老山居民区"}, {"detail": 1, "address": "北京市石景山区老山西里", "uid": "1b84f8e0c580dcfc38e4a6fd", "detail_info": {"navi_location": {"lat": 39.917263285565, "lng": 116.22550972831}, "type": "house", "detail_url": "http://api.map.baidu.com/place/detail?uid=1b84f8e0c580dcfc38e4a6fd&output=html&source=placeapi_v2", "image_num": "2", "tag": "房地产;住宅区"}, "street_id": "1b84f8e0c580dcfc38e4a6fd", "location": {"lat": 39.917115, "lng": 116.22525}, "name": "老山西里-41号楼"}, {"detail": 1, "address": "石景山路23号", "uid": "1cef3c09c1d06db597ec841c", "detail_info": {"navi_location": {"lat": 39.915994301538, "lng": 116.21914900036}, "type": "house", "detail_url": "http://api.map.baidu.com/place/detail?uid=1cef3c09c1d06db597ec841c&output=html&source=placeapi_v2", "image_num": "4", "tag": "房地产;住宅区"}, "street_id": "1cef3c09c1d06db597ec841c", "location": {"lat": 39.91615, "lng": 116.219179}, "name": "石景山路23号院-7号楼"}, {"detail": 1, "address": "石景山路23号", "uid": "a94b4601198f3dccc9fa5fdc", "detail_info": {"navi_location": {"lat": 39.915978463646, "lng": 116.22037669834}, "type": "house", "detail_url": "http://api.map.baidu.com/place/detail?uid=a94b4601198f3dccc9fa5fdc&output=html&source=placeapi_v2", "image_num": "3", "tag": "房地产;住宅区"}, "street_id": "a94b4601198f3dccc9fa5fdc", "location": {"lat": 39.916082, "lng": 116.220407}, "name": "石景山路23号院-8号楼"}, {"detail": 1, "address": "北京市石景山区老山西街7号楼院3号楼", "uid": "60e8a91522a65ae340afe671", "detail_info": {"navi_location": {"lat": 39.920293992951, "lng": 116.22200216688}, "type": "house", "detail_url": "http://api.map.baidu.com/place/detail?uid=60e8a91522a65ae340afe671&output=html&source=placeapi_v2", "image_num": "1", "tag": "房地产;住宅区"}, "street_id": "60e8a91522a65ae340afe671", "location": {"lat": 39.920477, "lng": 116.221669}, "name": "老山西街7号楼院3号楼"}, {"detail": 1, "address": "北京市石景山区老山西街7号楼院2号楼", "uid": "f635398d7fa443f9acee7a92", "detail_info": {"navi_location": {"lat": 39.919806352224, "lng": 116.22151875545}, "type": "house", "detail_url": "http://api.map.baidu.com/place/detail?uid=f635398d7fa443f9acee7a92&output=html&source=placeapi_v2", "image_num": "1", "tag": "房地产;住宅区"}, "street_id": "f635398d7fa443f9acee7a92", "location": {"lat": 39.91976, "lng": 116.221527}, "name": "老山西街7号楼院2号楼"}, {"detail": 1, "address": "北京市石景山区老山西街7号楼院1号楼", "uid": "1417bef41b3bcd023f9a5e7d", "detail_info": {"navi_location": {"lat": 39.92015829391, "lng": 116.22150851477}, "type": "house", "detail_url": "http://api.map.baidu.com/place/detail?uid=1417bef41b3bcd023f9a5e7d&output=html&source=placeapi_v2", "image_num": "1", "tag": "房地产;住宅区"}, "street_id": "1417bef41b3bcd023f9a5e7d", "location": {"lat": 39.920165, "lng": 116.221606}, "name": "老山西街7号楼院1号楼"}, {"detail": 1, "address": "石景山路23号", "uid": "61fb1c9eb1d9914ba8175a4b", "detail_info": {"navi_location": {"lat": 39.915440716609, "lng": 116.21955641335}, "type": "house", "detail_url": "http://api.map.baidu.com/place/detail?uid=61fb1c9eb1d9914ba8175a4b&output=html&source=placeapi_v2", "image_num": "2", "tag": "房地产;住宅区"}, "street_id": "61fb1c9eb1d9914ba8175a4b", "location": {"lat": 39.915629, "lng": 116.219201}, "name": "石景山路23号院-6号楼"}, {"detail": 1, "address": "老山西街7号", "uid": "34059f97e006925471455bdd", "detail_info": {"navi_location": {"lat": 39.92027763735, "lng": 116.222325644}, "image_num": "20", "type": "house", "detail_url": "http://api.map.baidu.com/place/detail?uid=34059f97e006925471455bdd&output=html&source=placeapi_v2", "tag": "房地产;住宅区", "price": "35093.0", "overall_rating": "5"}, "street_id": "34059f97e006925471455bdd", "location": {"lat": 39.920166, "lng": 116.22169}, "name": "老山西街7号院"}, {"detail": 1, "address": "石景山八角铁站附近", "uid": "857fd3981833775422026284", "detail_info": {"navi_location": {"lat": 39.917196065853, "lng": 116.2333206645}, "image_num": "45", "type": "house", "detail_url": "http://api.map.baidu.com/place/detail?uid=857fd3981833775422026284&output=html&source=placeapi_v2", "tag": "房地产;住宅区", "price": "35306.0", "overall_rating": "4"}, "street_id": "857fd3981833775422026284", "location": {"lat": 39.915679, "lng": 116.230497}, "name": "老山东里"}, {"detail": 1, "address": "北京市石景山区", "uid": "26709df1bc7ecfed11882491", "detail_info": {"navi_location": {"lat": 39.915125868262, "lng": 116.23002181987}, "type": "house", "detail_url": "http://api.map.baidu.com/place/detail?uid=26709df1bc7ecfed11882491&output=html&source=placeapi_v2", "image_num": "1", "tag": "房地产;住宅区"}, "street_id": "26709df1bc7ecfed11882491", "location": {"lat": 39.915665, "lng": 116.230705}, "name": "老山东里-甲20号楼"}, {"detail": 1, "address": "北京市海淀区田村山南路", "uid": "1fce2a0975755cf28bb988e1", "detail_info": {"navi_location": {"lat": 39.925230859575, "lng": 116.24457319774}, "type": "house", "detail_url": "http://api.map.baidu.com/place/detail?uid=1fce2a0975755cf28bb988e1&output=html&source=placeapi_v2", "image_num": "2", "tag": "房地产;住宅区"}, "street_id": "1fce2a0975755cf28bb988e1", "location": {"lat": 39.925129, "lng": 116.244093}, "name": "田村山南路18号院1号楼"}, {"detail": 1, "address": "四环到五环内玉泉路北临1号", "uid": "05dd7d5fc9de2e02ad080fc9", "detail_info": {"navi_location": {"lat": 39.922236462639, "lng": 116.25132190203}, "image_num": "58", "type": "house", "detail_url": "http://api.map.baidu.com/place/detail?uid=05dd7d5fc9de2e02ad080fc9&output=html&source=placeapi_v2", "tag": "房地产;住宅区", "price": "39812.0", "overall_rating": "5.0"}, "street_id": "05dd7d5fc9de2e02ad080fc9", "location": {"lat": 39.923405, "lng": 116.250959}, "name": "翠谷玉景苑"}, {"detail": 1, "address": "北京市石景山区翠谷玉景苑", "uid": "7cee7f20ce35b35ac7f025fa", "detail_info": {"navi_location": {"lat": 39.924271299071, "lng": 116.25245671881}, "type": "house", "detail_url": "http://api.map.baidu.com/place/detail?uid=7cee7f20ce35b35ac7f025fa&output=html&source=placeapi_v2", "image_num": "1", "tag": "房地产;住宅区"}, "street_id": "7cee7f20ce35b35ac7f025fa", "location": {"lat": 39.924136, "lng": 116.252432}, "name": "翠谷玉景苑-13号楼"}, {"detail": 1, "address": "北京市石景山区翠谷玉景苑", "uid": "d6616bfa81772a3371210b72", "detail_info": {"navi_location": {"lat": 39.922892444278, "lng": 116.25018829528}, "type": "house", "detail_url": "http://api.map.baidu.com/place/detail?uid=d6616bfa81772a3371210b72&output=html&source=placeapi_v2", "image_num": "1", "tag": "房地产;住宅区"}, "street_id": "d6616bfa81772a3371210b72", "location": {"lat": 39.922764, "lng": 116.250269}, "name": "翠谷玉景苑-9号楼"}, {"detail": 1, "address": "玉泉西街1号", "uid": "aca007288e18359ab75f1e25", "detail_info": {"navi_location": {"lat": 39.920479965771, "lng": 116.25405128295}, "image_num": "24", "type": "house", "detail_url": "http://api.map.baidu.com/place/detail?uid=aca007288e18359ab75f1e25&output=html&source=placeapi_v2", "tag": "房地产;住宅区", "price": "38832.0"}, "street_id": "aca007288e18359ab75f1e25", "location": {"lat": 39.92079, "lng": 116.253396}, "name": "玉泉西街1号院"}, {"detail": 1, "address": "北京市石景山区翠谷玉景苑10号楼", "uid": "4245c7afd6d8ea1a5b1093c4", "detail_info": {"navi_location": {"lat": 39.922913426169, "lng": 116.2521702923},