{
   "朝阳区小区":[
      {
         "location":{
            "lat":39.859683,
            "lng":116.455751
         },
         "uid":"86ad1bfa4cc709a0c2f1cf5e",
         "detail":1,
         "name":"万盛家园",
         "address":"丰台区分钟寺关家坑7号",
         "street_id":"86ad1bfa4cc709a0c2f1cf5e"
      },
      {
         "location":{
            "lat":39.854853,
            "lng":116.469757
         },
         "uid":"40e422e0e3c55610581093e8",
         "detail":1,
         "telephone":"(010)87695792",
         "name":"北京金宝鼎白领公寓",
         "address":"吕营大街6号",
         "street_id":"40e422e0e3c55610581093e8"
      },
      {
         "location":{
            "lat":39.861161,
            "lng":116.456033
         },
         "uid":"3d4cd89cd8255737abf72978",
         "detail":1,
         "name":"诚同成公寓",
         "address":"南苑乡分钟寺村",
         "street_id":"3d4cd89cd8255737abf72978"
      },
      {
         "location":{
            "lat":39.869596,
            "lng":116.459524
         },
         "uid":"ebd2ff1da45ce069b5147f39",
         "detail":1,
         "name":"王家大院公寓",
         "address":"北京市朝阳区南三环东路",
         "street_id":"ebd2ff1da45ce069b5147f39"
      },
      {
         "location":{
            "lat":39.857742,
            "lng":116.46761
         },
         "uid":"4abcf6c777a13065f7b91612",
         "detail":1,
         "telephone":"(010)87691900",
         "name":"万聚公寓",
         "address":"东四道口A-09",
         "street_id":"4abcf6c777a13065f7b91612"
      },
      {
         "location":{
            "lat":39.858259,
            "lng":116.466376
         },
         "uid":"a79ec3b7e38334d27c29bd48",
         "detail":1,
         "name":"华盛公寓",
         "address":"北京市丰台区东四道口A-06号",
         "street_id":"a79ec3b7e38334d27c29bd48"
      },
      {
         "location":{
            "lat":39.85812,
            "lng":116.470288
         },
         "uid":"6d5c0a73818e2349eb12e4f5",
         "detail":1,
         "name":"分钟寺新村",
         "address":"吕营大街西150米",
         "street_id":"6d5c0a73818e2349eb12e4f5"
      },
      {
         "location":{
            "lat":39.856303,
            "lng":116.454303
         },
         "uid":"3915ec93940cad4695f08ce6",
         "detail":1,
         "name":"大智公寓",
         "address":"成寿寺中街关家坑206号",
         "street_id":"3915ec93940cad4695f08ce6"
      },
      {
         "location":{
            "lat":39.857474,
            "lng":116.464958
         },
         "uid":"5dc1b82a76bbd979b13c8168",
         "detail":1,
         "telephone":"(010)59423657",
         "name":"顺鑫公寓",
         "address":"北京北京东四道口03-29号",
         "street_id":"5dc1b82a76bbd979b13c8168"
      },
      {
         "location":{
            "lat":39.861354,
            "lng":116.463563
         },
         "uid":"8e59f19d210e3bcf0d0e6b59",
         "detail":1,
         "name":"金色大地公寓",
         "address":"分钟寺枣林街甲6号",
         "street_id":"8e59f19d210e3bcf0d0e6b59"
      },
      {
         "location":{
            "lat":39.871994,
            "lng":116.481147
         },
         "uid":"8c6dd68c78fbbf3dd8d891d6",
         "detail":1,
         "name":"周庄嘉园",
         "address":"十里河弘燕路、四方桥南",
         "street_id":"8c6dd68c78fbbf3dd8d891d6"
      },
      {
         "location":{
            "lat":39.870107,
            "lng":116.493698
         },
         "uid":"e306a90d12142fdeca213d70",
         "detail":1,
         "telephone":"(010)87326666,(010)87327777",
         "name":"林达海渔广场",
         "address":"东四环南路53号",
         "street_id":"e306a90d12142fdeca213d70"
      },
      {
         "location":{
            "lat":39.870467,
            "lng":116.484264
         },
         "uid":"2e092def0469436ac9291595",
         "detail":1,
         "name":"周庄三期",
         "address":"北京市朝阳区西大望南路",
         "street_id":"2e092def0469436ac9291595"
      },
      {
         "location":{
            "lat":39.869949,
            "lng":116.489036
         },
         "uid":"1562066a8aa0ad9ab8bd6373",
         "detail":1,
         "name":"建工家园",
         "address":"东南四环四路通中路12号院(近山水文园)",
         "street_id":"1562066a8aa0ad9ab8bd6373"
      },
      {
         "location":{
            "lat":39.868234,
            "lng":116.481523
         },
         "uid":"08f1f1f5adc93aca89db7394",
         "detail":1,
         "name":"周庄嘉园-C区",
         "address":"北京市朝阳区西大望南路与小武基路交口西北侧",
         "street_id":"08f1f1f5adc93aca89db7394"
      },
      {
         "location":{
            "lat":39.867079,
            "lng":116.484165
         },
         "uid":"d63cb3fb21ce88ce8e7727be",
         "detail":1,
         "name":"周庄三期-B区",
         "address":"北京市朝阳区西大望南路",
         "street_id":"d63cb3fb21ce88ce8e7727be"
      },
      {
         "location":{
            "lat":39.866282,
            "lng":116.474633
         },
         "uid":"03a4555d5eaa622c4d5547c7",
         "detail":1,
         "name":"东盈苑小区",
         "address":"朝阳区十里河大羊坊路79号",
         "street_id":"03a4555d5eaa622c4d5547c7"
      },
      {
         "location":{
            "lat":39.858188,
            "lng":116.481808
         },
         "uid":"9e1e103476a9e2fdf4eafcc4",
         "detail":1,
         "name":"爱民小区",
         "address":"厂桥",
         "street_id":"9e1e103476a9e2fdf4eafcc4"
      },
      {
         "location":{
            "lat":39.866386,
            "lng":116.480173
         },
         "uid":"1e81dd1ec01ff97fce04eff2",
         "detail":1,
         "name":"周庄嘉园南里-14号楼",
         "address":"北京市朝阳区周庄嘉园南里14号楼",
         "street_id":"1e81dd1ec01ff97fce04eff2"
      },
      {
         "location":{
            "lat":39.872015,
            "lng":116.491744
         },
         "uid":"cddc4467925cb0a1fb2213d4",
         "detail":1,
         "name":"山水文园东园-14号楼",
         "address":"北京市朝阳区山水文园东园14号楼",
         "street_id":"cddc4467925cb0a1fb2213d4"
      },
      {
         "location":{
            "lat":39.862759,
            "lng":116.513168
         },
         "uid":"0900acd7bc0d9e3528201aa4",
         "detail":1,
         "name":"翠成馨园",
         "address":"京沈高速东四环第一出口往南800米",
         "street_id":"0900acd7bc0d9e3528201aa4"
      },
      {
         "location":{
            "lat":39.868721,
            "lng":116.509046
         },
         "uid":"c9b7732fd5de3bc8b5f42fc9",
         "detail":1,
         "name":"金蝉南里",
         "address":"北京市朝阳区华侨城b区",
         "street_id":"c9b7732fd5de3bc8b5f42fc9"
      },
      {
         "location":{
            "lat":39.872004,
            "lng":116.510586
         },
         "uid":"2cc3c8e8253da6d64c2fdf96",
         "detail":1,
         "name":"北京·华侨城A区-2号院",
         "address":"北京市朝阳区金蝉欢乐园2号",
         "street_id":"2cc3c8e8253da6d64c2fdf96"
      },
      {
         "location":{
            "lat":39.872174,
            "lng":116.513642
         },
         "uid":"b703e96bd3dc46fb8f1a89e4",
         "detail":1,
         "name":"金蝉里",
         "address":"北京市朝阳区金蝉里17号楼",
         "street_id":"b703e96bd3dc46fb8f1a89e4"
      },
      {
         "location":{
            "lat":39.871878,
            "lng":116.513532
         },
         "uid":"63d9802573be2be4adee7a64",
         "detail":1,
         "name":"金蝉里-16号楼",
         "address":"北京市朝阳区金蝉里16号楼",
         "street_id":"63d9802573be2be4adee7a64"
      },
      {
         "location":{
            "lat":39.868938,
            "lng":116.510685
         },
         "uid":"89de015872b56092b45f1eb8",
         "detail":1,
         "name":"金蝉南里-12号楼",
         "address":"北京市朝阳区金蝉南里12号楼",
         "street_id":"89de015872b56092b45f1eb8"
      },
      {
         "location":{
            "lat":39.869607,
            "lng":116.494987
         },
         "uid":"bbcf49189eb8905241d63e89",
         "detail":1,
         "name":"欢乐谷公寓1号院",
         "address":"十八里店",
         "street_id":"bbcf49189eb8905241d63e89"
      },
      {
         "location":{
            "lat":39.868632,
            "lng":116.508698
         },
         "uid":"879b0ef7ef2ca028931fc9ee",
         "detail":1,
         "name":"金蝉南里-7号楼",
         "address":"北京市朝阳区金蝉南里西区7号楼",
         "street_id":"879b0ef7ef2ca028931fc9ee"
      },
      {
         "location":{
            "lat":39.862036,
            "lng":116.509666
         },
         "uid":"a5ee1579b8732d6a95ca07c9",
         "detail":1,
         "name":"翠成馨园-421号楼",
         "address":"北京市朝阳区",
         "street_id":"1440f11e978ca20c09b93a79"
      },
      {
         "location":{
            "lat":39.868214,
            "lng":116.5076
         },
         "uid":"57caaa191d9c37c67dc87622",
         "detail":1,
         "name":"金蝉南里-3号楼",
         "address":"北京市朝阳区金蝉南里西区3号楼",
         "street_id":"57caaa191d9c37c67dc87622"
      },
      {
         "location":{
            "lat":39.862214,
            "lng":116.533814
         },
         "uid":"42a18ee5de4ca36ca21de9db",
         "detail":1,
         "name":"双合小区",
         "address":"北京市朝阳区双合中路3号(北京工业技师学院对面)",
         "street_id":"42a18ee5de4ca36ca21de9db"
      },
      {
         "location":{
            "lat":39.870718,
            "lng":116.519582
         },
         "uid":"15e1e85e3f3d0ddf59109386",
         "detail":1,
         "name":"垡头西里",
         "address":"东四环四方桥南1公里垡头",
         "street_id":"15e1e85e3f3d0ddf59109386"
      },
      {
         "location":{
            "lat":39.865965,
            "lng":116.524067
         },
         "uid":"a12baa40e085da56e956fa96",
         "detail":1,
         "name":"垡头东里社区",
         "address":"化工路与垡头东路交叉口北50米",
         "street_id":"a12baa40e085da56e956fa96"
      },
      {
         "location":{
            "lat":39.861217,
            "lng":116.523915
         },
         "uid":"c123adda6ed3957b83a00c70",
         "detail":1,
         "telephone":"(010)67372236",
         "name":"金辉小区",
         "address":"垡头武基路",
         "street_id":"c123adda6ed3957b83a00c70"
      },
      {
         "location":{
            "lat":39.860048,
            "lng":116.523292
         },
         "uid":"3ce3653453ae1a63373a715c",
         "detail":1,
         "telephone":"13521645023",
         "name":"建华小区",
         "address":"十八里店乡西直河村武基路",
         "street_id":"3ce3653453ae1a63373a715c"
      },
      {
         "location":{
            "lat":39.869817,
            "lng":116.516132
         },
         "uid":"c7eca12b5b4ed637e015f996",
         "detail":1,
         "name":"垡头西里-三区",
         "address":"北京市朝阳区垡头路垡头西里三区垡头三区",
         "street_id":"c7eca12b5b4ed637e015f996"
      },
      {
         "location":{
            "lat":39.852601,
            "lng":116.515959
         },
         "uid":"699dbceae2b8102f30169ba0",
         "detail":1,
         "name":"绿洲家园",
         "address":"东南郊灌渠与老君堂中路交叉口南",
         "street_id":"699dbceae2b8102f30169ba0"
      },
      {
         "location":{
            "lat":39.869746,
            "lng":116.530224
         },
         "uid":"09483bec2f708d56931fc933",
         "detail":1,
         "name":"腾顺新区",
         "address":"北京市朝阳区垡头北路甲8号",
         "street_id":"09483bec2f708d56931fc933"
      },
      {
         "location":{
            "lat":39.858695,
            "lng":116.521854
         },
         "uid":"c2b0bdc9c413b3113913fd50",
         "detail":1,
         "name":"东方家园",
         "address":"武基路建华小区(沙县小吃南行30米路东)",
         "street_id":"c2b0bdc9c413b3113913fd50"
      },
      {
         "location":{
            "lat":39.856922,
            "lng":116.525172
         },
         "uid":"b75917dfb650b24f9d95de86",
         "detail":1,
         "name":"四季旺小区",
         "address":"十八里店",
         "street_id":"b75917dfb650b24f9d95de86"
      },
      {
         "location":{
            "lat":39.855175,
            "lng":116.536855
         },
         "uid":"7d7fa9322e881a670aa8d48a",
         "detail":1,
         "name":"嘉和青年公寓",
         "address":"西直河村452",
         "street_id":"7d7fa9322e881a670aa8d48a"
      },
      {
         "location":{
            "lat":39.870296,
            "lng":116.543371
         },
         "uid":"3a48a9035ae808111c3894f9",
         "detail":1,
         "name":"孛罗公寓",
         "address":"孛罗营村4号",
         "street_id":"3a48a9035ae808111c3894f9"
      },
      {
         "location":{
            "lat":39.860786,
            "lng":116.559689
         },
         "uid":"fcd4645d003838dd441a329a",
         "detail":1,
         "telephone":"(010)87309999",
         "name":"恒大御景湾",
         "address":"北京市朝阳区豆各庄乡黄厂村黄厂路",
         "street_id":"fcd4645d003838dd441a329a"
      },
      {
         "location":{
            "lat":39.857041,
            "lng":116.571569
         },
         "uid":"37b6d4014a7f7be6373a7177",
         "detail":1,
         "name":"朝丰家园",
         "address":"天达路朝丰家园6号院底商",
         "street_id":"37b6d4014a7f7be6373a7177"
      },
      {
         "location":{
            "lat":39.853055,
            "lng":116.564442
         },
         "uid":"a5ef680fa8cc43aab9df8fcd",
         "detail":1,
         "name":"富力又一城-C区",
         "address":"黄厂南里3号院",
         "street_id":"a5ef680fa8cc43aab9df8fcd"
      },
      {
         "location":{
            "lat":39.871256,
            "lng":116.565924
         },
         "uid":"1fef97aca9240ff11188246d",
         "detail":1,
         "name":"京城雅居",
         "address":"朝阳京沈高速路豆各庄出口（豆各庄六号院）",
         "street_id":"1fef97aca9240ff11188246d"
      },
      {
         "location":{
            "lat":39.853115,
            "lng":116.572563
         },
         "uid":"8fa14fc3e014c86ef6eafc96",
         "detail":1,
         "name":"富力又一城A区",
         "address":"黄厂南里1号院",
         "street_id":"8fa14fc3e014c86ef6eafc96"
      },
      {
         "location":{
            "lat":39.853117,
            "lng":116.56889
         },
         "uid":"f696f3c2de8c5d961b11d52f",
         "detail":1,
         "name":"富力又一城-B区",
         "address":"北京市朝阳区富力又一城南",
         "street_id":"f696f3c2de8c5d961b11d52f"
      },
      {
         "location":{
            "lat":39.85301,
            "lng":116.568822
         },
         "uid":"a127e6e100db744eafee7a60",
         "detail":1,
         "name":"黄厂南里2号院",
         "address":"北京市朝阳区大鲁店北路",
         "street_id":"a127e6e100db744eafee7a60"
      },
      {
         "location":{
            "lat":39.869125,
            "lng":116.566325
         },
         "uid":"f2f15ffb6fc2f9f5631c67cb",
         "detail":1,
         "name":"豆各庄一号院",
         "address":"京城雅居南门附近",
         "street_id":"f2f15ffb6fc2f9f5631c67cb"
      },
      {
         "location":{
            "lat":39.858156,
            "lng":116.572423
         },
         "uid":"5ae57cef15d5edcc2a02e164",
         "detail":1,
         "name":"朝丰家园-13号楼",
         "address":"北京市朝阳区朝丰家园13号楼",
         "street_id":"5ae57cef15d5edcc2a02e164"
      },
      {
         "location":{
            "lat":39.8527,
            "lng":116.567285
         },
         "uid":"6d7928a119b9e1e245e27433",
         "detail":1,
         "name":"富力又一城B区-10号楼",
         "address":"北京市朝阳区富力又一城B区10号楼",
         "street_id":"6d7928a119b9e1e245e27433"
      },
      {
         "location":{
            "lat":39.888131,
            "lng":116.470815
         },
         "uid":"a054ca5372a78420f40e77ab",
         "detail":1,
         "telephone":"010-67354935",
         "name":"农光里小区",
         "address":"北京市朝阳区东三环南路辅路与南磨房路交叉口东南侧",
         "street_id":"a054ca5372a78420f40e77ab"
      },
      {
         "location":{
            "lat":39.888786,
            "lng":116.455127
         },
         "uid":"637df60ac9e6957241afe695",
         "detail":1,
         "name":"劲松八区",
         "address":"劲松路2号",
         "street_id":"637df60ac9e6957241afe695"
      },
      {
         "location":{
            "lat":39.891424,
            "lng":116.458051
         },
         "uid":"2e00c5dd5f038f1cd6851f95",
         "detail":1,
         "telephone":"(010)58768288",
         "name":"都城心屿",
         "address":"朝阳区劲松二区229号楼，光明桥东100米路北",
         "street_id":"2e00c5dd5f038f1cd6851f95"
      },
      {
         "location":{
            "lat":39.879503,
            "lng":116.471176
         },
         "uid":"a5097bfadf918c1df03cba72",
         "detail":1,
         "name":"松榆西里社区",
         "address":"北京市朝阳区松榆西里65号",
         "street_id":"a5097bfadf918c1df03cba72"
      },
      {
         "location":{
            "lat":39.884924,
            "lng":116.455665
         },
         "uid":"631c4157bb0b036130f71d95",
         "detail":1,
         "telephone":"(010)67746360,(010)67788818",
         "name":"方丹苑",
         "address":"劲松七区29号",
         "street_id":"631c4157bb0b036130f71d95"
      },
      {
         "location":{
            "lat":39.874361,
            "lng":116.469251
         },
         "uid":"e05a2442391dcce231870aa3",
         "detail":1,
         "telephone":"(010)87312837",
         "name":"御景园",
         "address":"北京市朝阳区首图东路5号东三环华威桥东南角",
         "street_id":"e05a2442391dcce231870aa3"
      },
      {
         "location":{
            "lat":39.873289,
            "lng":116.469407
         },
         "uid":"a339a16f8ff60197fadc855c",
         "detail":1,
         "telephone":"(010)67641955",
         "name":"德元九和大厦",
         "address":"十八里店东三环弘燕路10号",
         "street_id":"a339a16f8ff60197fadc855c"
      },
      {
         "location":{
            "lat":39.881271,
            "lng":116.454956
         },
         "uid":"dbf4d6ee412f4b2a6ea3cc95",
         "detail":1,
         "name":"嘉禾园小区",
         "address":"北京市朝阳区潘家园南里25号楼",
         "street_id":"dbf4d6ee412f4b2a6ea3cc95"
      },
      {
         "location":{
            "lat":39.88901,
            "lng":116.465174
         },
         "uid":"5fde637a3bb22d8e40ab9a0c",
         "detail":1,
         "name":"劲松三区",
         "address":"劲松路与东三环交口西北角",
         "street_id":"5fde637a3bb22d8e40ab9a0c"
      },
      {
         "location":{
            "lat":39.891075,
            "lng":116.457082
         },
         "uid":"33fbfa8383e9a5c10af5eb95",
         "detail":1,
         "name":"劲松嘉园",
         "address":"朝阳区光明桥东100米路北劲松西口",
         "street_id":"33fbfa8383e9a5c10af5eb95"
      },
      {
         "location":{
            "lat":39.87526,
            "lng":116.476626
         },
         "uid":"1eeed5464a05e18cb5147fe2",
         "detail":1,
         "name":"美景东方小区",
         "address":"北京市朝阳区松榆南路38号",
         "street_id":"1eeed5464a05e18cb5147fe2"
      },
      {
         "location":{
            "lat":39.875026,
            "lng":116.482805
         },
         "uid":"a5ef680fb40f2fd7b8df8f95",
         "detail":1,
         "name":"南新园小区",
         "address":"北京市朝阳区南磨房乡松榆南路南新园",
         "street_id":"a5ef680fb40f2fd7b8df8f95"
      },
      {
         "location":{
            "lat":39.888247,
            "lng":116.488017
         },
         "uid":"060f5e53ca77f9a9081cc772",
         "detail":1,
         "name":"平乐园小区",
         "address":"北京市朝阳区东三环路东侧",
         "street_id":"060f5e53ca77f9a9081cc772"
      },
      {
         "location":{
            "lat":39.889043,
            "lng":116.482187
         },
         "uid":"65c45e59e84f4caac72ba17c",
         "detail":1,
         "name":"禧福汇",
         "address":"北京市朝阳区南磨房路16号",
         "street_id":"65c45e59e84f4caac72ba17c"
      },
      {
         "location":{
            "lat":39.875338,
            "lng":116.486291
         },
         "uid":"81d6a5094af6ce406f20b995",
         "detail":1,
         "name":"双龙南里小区",
         "address":"双龙南里207",
         "street_id":"81d6a5094af6ce406f20b995"
      },
      {
         "location":{
            "lat":39.878855,
            "lng":116.481461
         },
         "uid":"43b7e8899348476a59f6be95",
         "detail":1,
         "name":"松榆东里小区",
         "address":"北京市朝阳区松榆里4号楼",
         "street_id":"43b7e8899348476a59f6be95"
      },
      {
         "location":{
            "lat":39.89142,
            "lng":116.493914
         },
         "uid":"e3621973b6f51ca09868b452",
         "detail":1,
         "telephone":"(010)58632782",
         "name":"蓝山",
         "address":"北京市朝阳区南磨坊路3号院",
         "street_id":"e3621973b6f51ca09868b452"
      },
      {
         "location":{
            "lat":39.887932,
            "lng":116.476189
         },
         "uid":"e85e2527b812635394f08c95",
         "detail":1,
         "name":"农光东里小区",
         "address":"北京市朝阳区农光东里2",
         "street_id":"e85e2527b812635394f08c95"
      },
      {
         "location":{
            "lat":39.887817,
            "lng":116.479209
         },
         "uid":"99b1c00d2a93c80c7069d3e4",
         "detail":1,
         "name":"磨房北里社区",
         "address":"北京市朝阳区东三环劲松桥东，西大望路与南磨房路交叉口儿西南角儿",
         "street_id":"99b1c00d2a93c80c7069d3e4"
      },
      {
         "location":{
            "lat":39.883677,
            "lng":116.476367
         },
         "uid":"6deee3086a44396a28fc4894",
         "detail":1,
         "name":"武圣东里小区",
         "address":"武圣路",
         "street_id":"6deee3086a44396a28fc4894"
      },
      {
         "location":{
            "lat":39.873732,
            "lng":116.509488
         },
         "uid":"dffd631c857db6bd39221cb5",
         "detail":1,
         "telephone":"(010)67379999",
         "name":"华侨城",
         "address":"北京市朝阳区金蝉北路",
         "street_id":"dffd631c857db6bd39221cb5"
      },
      {
         "location":{
            "lat":39.880915,
            "lng":116.501994
         },
         "uid":"28e700f1e0f7c201085cb395",
         "detail":1,
         "name":"世纪东方嘉园",
         "address":"北京市朝阳区东四环四方桥东北角",
         "street_id":"28e700f1e0f7c201085cb395"
      },
      {
         "location":{
            "lat":39.880793,
            "lng":116.504456
         },
         "uid":"befdb29252675d9f871541cd",
         "detail":1,
         "name":"紫南家园小区",
         "address":"朝阳京沈与东四环交界东北处四方桥东欢乐谷的北侧",
         "street_id":"befdb29252675d9f871541cd"
      },
      {
         "location":{
            "lat":39.874532,
            "lng":116.509832
         },
         "uid":"c8e8f633b264766caa0dd896",
         "detail":1,
         "name":"北京华侨城A区-1号院",
         "address":"北京市朝阳区金蝉北路",
         "street_id":"c8e8f633b264766caa0dd896"
      },
      {
         "location":{
            "lat":39.884835,
            "lng":116.499385
         },
         "uid":"2b6f18d339cf46226d20b9fa",
         "detail":1,
         "name":"华瀚国际",
         "address":"北京市朝阳区世纪东方城102号",
         "street_id":"2b6f18d339cf46226d20b9fa"
      },
      {
         "location":{
            "lat":39.873011,
            "lng":116.512785
         },
         "uid":"3e09cc5e3e757a9e05fef57a",
         "detail":1,
         "telephone":"(010)67365131",
         "name":"格林莱雅",
         "address":"朝阳东金蝉里22号院2-11",
         "street_id":"3e09cc5e3e757a9e05fef57a"
      },
      {
         "location":{
            "lat":39.88339,
            "lng":116.500888
         },
         "uid":"c7fb04bdd1affb15fb0cad95",
         "detail":1,
         "name":"世纪东方嘉园北区",
         "address":"北京市朝阳区大柳树路",
         "street_id":"c7fb04bdd1affb15fb0cad95"
      },
      {
         "location":{
            "lat":39.873372,
            "lng":116.509172
         },
         "uid":"996053cc7ccca6900aa8d4f5",
         "detail":1,
         "name":"金蝉欢乐园2号院",
         "address":"北京市朝阳区金蝉北路",
         "street_id":"996053cc7ccca6900aa8d4f5"
      },
      {
         "location":{
            "lat":39.87244,
            "lng":116.514118
         },
         "uid":"14ecd9a326a34610ebe582c7",
         "detail":1,
         "name":"金蝉里-20号楼",
         "address":"北京市朝阳区金蝉里20号楼",
         "street_id":"14ecd9a326a34610ebe582c7"
      },
      {
         "location":{
            "lat":39.88081,
            "lng":116.498965
         },
         "uid":"cccf3c2d42c3c46f82a12e71",
         "detail":1,
         "name":"世纪东方嘉园-202号楼",
         "address":"北京市朝阳区世纪东方嘉园南区202号楼",
         "street_id":"cccf3c2d42c3c46f82a12e71"
      },
      {
         "location":{
            "lat":39.890339,
            "lng":116.531526
         },
         "uid":"b5f83f23172dff019e95de5e",
         "detail":1,
         "telephone":"010-58707010",
         "name":"中海·安德鲁斯庄园",
         "address":"北京市朝阳区王四营乡观音堂村181号",
         "street_id":"b5f83f23172dff019e95de5e"
      },
      {
         "location":{
            "lat":39.874785,
            "lng":116.514235
         },
         "uid":"709d084d19db3f1c077ce8d3",
         "detail":1,
         "name":"北京焦化厂金蝉北里小区",
         "address":"北京市朝阳区金蝉北里11号楼",
         "street_id":"709d084d19db3f1c077ce8d3"
      },
      {
         "location":{
            "lat":39.874161,
            "lng":116.518211
         },
         "uid":"1cea15a9d51e0ec506fef596",
         "detail":1,
         "name":"垡头北里小区",
         "address":"北京市朝阳区欢乐谷垡头华侨城金蝉北里",
         "street_id":"1cea15a9d51e0ec506fef596"
      },
      {
         "location":{
            "lat":39.873361,
            "lng":116.514258
         },
         "uid":"1b66bbce6b0ba3f2740269b3",
         "detail":1,
         "name":"金蝉里-19号楼",
         "address":"北京市朝阳区金蝉里19号楼",
         "street_id":"1b66bbce6b0ba3f2740269b3"
      },
      {
         "location":{
            "lat":39.889682,
            "lng":116.522085
         },
         "uid":"24e2705358aac804b21e36e3",
         "detail":1,
         "telephone":"(010)52460539",
         "name":"古典公寓",
         "address":"北京市朝阳区小海子100号",
         "street_id":"24e2705358aac804b21e36e3"
      },
      {
         "location":{
            "lat":39.875624,
            "lng":116.516285
         },
         "uid":"48eb0058d52fd3d12ee67bb5",
         "detail":1,
         "name":"金蝉北里-21号院",
         "address":"金蝉北里21号院8",
         "street_id":"48eb0058d52fd3d12ee67bb5"
      },
      {
         "location":{
            "lat":39.872923,
            "lng":116.515619
         },
         "uid":"f02d8e146383ae455f0d0296",
         "detail":1,
         "name":"垡头西里-二区",
         "address":"北京市朝阳区垡头街与金蝉路交汇处",
         "street_id":"f02d8e146383ae455f0d0296"
      },
      {
         "location":{
            "lat":39.873104,
            "lng":116.518865
         },
         "uid":"82e7c28ad7516f1f8bb988b6",
         "detail":1,
         "name":"垡头西里-一区",
         "address":"垡头西里一区",
         "street_id":"82e7c28ad7516f1f8bb988b6"
      },
      {
         "location":{
            "lat":39.874345,
            "lng":116.515089
         },
         "uid":"a6d18a3171291c32ad080f73",
         "detail":1,
         "name":"金蝉北里-16号楼",
         "address":"北京市朝阳区金蝉北里16号楼",
         "street_id":"a6d18a3171291c32ad080f73"
      },
      {
         "location":{
            "lat":39.873951,
            "lng":116.515096
         },
         "uid":"3570d26527cc34b911882464",
         "detail":1,
         "name":"金蝉北里-15号楼",
         "address":"北京市朝阳区金蝉北里15号楼",
         "street_id":"3570d26527cc34b911882464"
      },
      {
         "location":{
            "lat":39.876749,
            "lng":116.538992
         },
         "uid":"0bce0e8d0ea98370b6f42f5f",
         "detail":1,
         "telephone":"(010)67372065",
         "name":"尚东公寓",
         "address":"北京市朝阳区王四营42号",
         "street_id":"0bce0e8d0ea98370b6f42f5f"
      },
      {
         "location":{
            "lat":39.887466,
            "lng":116.537845
         },
         "uid":"ffb3967b1d763e458a36ee2b",
         "detail":1,
         "telephone":"15901562618",
         "name":"金瑞家园",
         "address":"北京市朝阳区",
         "street_id":"ffb3967b1d763e458a36ee2b"
      },
      {
         "location":{
            "lat":39.89076,
            "lng":116.534439
         },
         "uid":"e08c4396b5e72db2cbfa5f30",
         "detail":1,
         "name":"观音堂小区",
         "address":"北京市朝阳区王四营乡观音堂村",
         "street_id":"e08c4396b5e72db2cbfa5f30"
      },
      {
         "location":{
            "lat":39.889128,
            "lng":116.552759
         },
         "uid":"2434eedf1992c7fc71210b0b",
         "detail":1,
         "name":"南花园168号",
         "address":"王四营北路北50米",
         "street_id":"2434eedf1992c7fc71210b0b"
      },
      {
         "location":{
            "lat":39.888586,
            "lng":116.551622
         },
         "uid":"cf695e4067610a2abd4842be",
         "detail":1,
         "name":"南花园-118号",
         "address":"王四营北路南50米",
         "street_id":"cf695e4067610a2abd4842be"
      },
      {
         "location":{
            "lat":39.888726,
            "lng":116.551973
         },
         "uid":"238f92cb945cf7f09868b45e",
         "detail":1,
         "name":"南花园-111号",
         "address":"王四营北路南50米",
         "street_id":"238f92cb945cf7f09868b45e"
      },
      {
         "location":{
            "lat":39.889155,
            "lng":116.55109
         },
         "uid":"1ca8561ec07d89005e0d0299",
         "detail":1,
         "name":"南花园-206号",
         "address":"王四营北路北50米",
         "street_id":"1ca8561ec07d89005e0d0299"
      },
      {
         "location":{
            "lat":39.888723,
            "lng":116.552718
         },
         "uid":"89b2a634bf5f32933ce231ef",
         "detail":1,
         "name":"南花园-105号",
         "address":"王四营北路南50米",
         "street_id":"89b2a634bf5f32933ce231ef"
      },
      {
         "location":{
            "lat":39.889155,
            "lng":116.550579
         },
         "uid":"62c6ae750c446fe0081cc787",
         "detail":1,
         "name":"南花园-208号",
         "address":"北京市朝阳区南花园208号",
         "street_id":"62c6ae750c446fe0081cc787"
      },
      {
         "location":{
            "lat":39.877973,
            "lng":116.538447
         },
         "uid":"2cf24d7d39b515d0715e80c5",
         "detail":1,
         "name":"北京若邻宾馆-D幢",
         "address":"北京市朝阳区若邻宾馆D幢",
         "street_id":"2cf24d7d39b515d0715e80c5"
      },
      {
         "location":{
            "lat":39.879082,
            "lng":116.559621
         },
         "uid":"e6ee2fd277a51d482a11d196",
         "detail":1,
         "telephone":"(010)87393933",
         "name":"柏阳景园",
         "address":"北京市朝阳区白鹿司路5号",
         "street_id":"e6ee2fd277a51d482a11d196"
      },
      {
         "location":{
            "lat":39.877212,
            "lng":116.562052
         },
         "uid":"da026bd1962f9a9f51e5c59c",
         "detail":1,
         "name":"海棠公社",
         "address":"北京市朝阳区东五环与京沈高速路交汇处(五方桥)东北角",
         "street_id":"da026bd1962f9a9f51e5c59c"
      },
      {
         "location":{
            "lat":39.881416,
            "lng":116.56011
         },
         "uid":"beabdbf411e041987169d396",
         "detail":1,
         "telephone":"18310055620",
         "name":"柏阳景园-A区",
         "address":"旧图书市场3栋334",
         "street_id":"beabdbf411e041987169d396"
      },
      {
         "location":{
            "lat":39.879974,
            "lng":116.560415
         },
         "uid":"8ff0f5f1e69ab9b62fb90848",
         "detail":1,
         "name":"白鹿司路1号院",
         "address":"王四营",
         "street_id":"8ff0f5f1e69ab9b62fb90848"
      },
      {
         "location":{
            "lat":39.881433,
            "lng":116.561148
         },
         "uid":"a687427a55106ef1c51b75ac",
         "detail":1,
         "name":"五方园林",
         "address":"白鹿司北街1号院附近",
         "street_id":"a687427a55106ef1c51b75ac"
      },
      {
         "location":{
            "lat":39.879607,
            "lng":116.560046
         },
         "uid":"b4a041cfeb62a7c3c72ba18e",
         "detail":1,
         "name":"柏阳景园A区-23号楼",
         "address":"北京市朝阳区柏阳景园A区23号楼",
         "street_id":"b4a041cfeb62a7c3c72ba18e"
      },
      {
         "location":{
            "lat":39.877652,
            "lng":116.559844
         },
         "uid":"16355f883d82928f4e554703",
         "detail":1,
         "name":"柏阳景园-11号楼",
         "address":"北京市朝阳区柏阳景园11号楼",
         "street_id":"16355f883d82928f4e554703"
      },
      {
         "location":{
            "lat":39.880314,
            "lng":116.559643
         },
         "uid":"f81a9cfc611fb41c6fa3cc9b",
         "detail":1,
         "name":"柏阳景园A区-11号楼",
         "address":"北京市朝阳区柏阳景园A区11号楼",
         "street_id":"f81a9cfc611fb41c6fa3cc9b"
      },
      {
         "location":{
            "lat":39.87791,
            "lng":116.562028
         },
         "uid":"546d823bfb83eb0fc909f0a1",
         "detail":1,
         "name":"海棠公社-57号楼",
         "address":"北京市朝阳区海棠公社57号楼",
         "street_id":"546d823bfb83eb0fc909f0a1"
      },
      {
         "location":{
            "lat":39.876823,
            "lng":116.559999
         },
         "uid":"3e66fff8d5e22d6f0c0e6b7f",
         "detail":1,
         "name":"柏阳景园-5号楼",
         "address":"北京市朝阳区柏阳景园5号楼",
         "street_id":"3e66fff8d5e22d6f0c0e6b7f"
      },
      {
         "location":{
            "lat":39.901663,
            "lng":116.462967
         },
         "uid":"e101df28d627d1ba5cd4fec2",
         "detail":1,
         "name":"富丽城小区",
         "address":"北京市朝阳区惠力路与广渠门外大街交叉口附近",
         "street_id":"e101df28d627d1ba5cd4fec2"
      },
      {
         "location":{
            "lat":39.896139,
            "lng":116.471417
         },
         "uid":"50f7d146e1ec0ac473210b95",
         "detail":1,
         "name":"百环家园",
         "address":"北京市朝阳区广渠路66号",
         "street_id":"50f7d146e1ec0ac473210b95"
      },
      {
         "location":{
            "lat":39.893056,
            "lng":116.471842
         },
         "uid":"550fd5f9fd236179921fc9b7",
         "detail":1,
         "name":"华腾园",
         "address":"东环南路54号",
         "street_id":"550fd5f9fd236179921fc9b7"
      },
      {
         "location":{
            "lat":39.901319,
            "lng":116.461288
         },
         "uid":"bb3a995397577459abf0cd4f",
         "detail":1,
         "name":"富力城-D区",
         "address":"朝阳区双井桥西北侧（国贸桥向南约700米）",
         "street_id":"bb3a995397577459abf0cd4f"
      },
      {
         "location":{
            "lat":39.897962,
            "lng":116.459785
         },
         "uid":"d0b8923f5e0bbae2b4f42f95",
         "detail":1,
         "name":"广泉小区",
         "address":"广渠门外大街甲28号",
         "street_id":"d0b8923f5e0bbae2b4f42f95"
      },
      {
         "location":{
            "lat":39.901518,
            "lng":116.471857
         },
         "uid":"3be122e1af753d4b1ef74d45",
         "detail":1,
         "telephone":"(010)87751339",
         "name":"天子骄子小区",
         "address":"北京市朝阳区东三环中路65号富力广场北侧(近富力万丽酒店)",
         "street_id":"3be122e1af753d4b1ef74d45"
      },
      {
         "location":{
            "lat":39.905354,
            "lng":116.465287
         },
         "uid":"3f11f6d90aa5993cbd48429b",
         "detail":1,
         "telephone":"010-67769575",
         "name":"合生国际家园",
         "address":"北京市朝阳区广渠门外大街31号",
         "street_id":"3f11f6d90aa5993cbd48429b"
      },
      {
         "location":{
            "lat":39.897461,
            "lng":116.455287
         },
         "uid":"108b1cea9a161dd23586f4dc",
         "detail":1,
         "name":"广渠家园小区",
         "address":"崇文区广渠门桥东南角",
         "street_id":"108b1cea9a161dd23586f4dc"
      },
      {
         "location":{
            "lat":39.904961,
            "lng":116.459317
         },
         "uid":"0dc3d82d4a9bb36c74e5b695",
         "detail":1,
         "name":"双花园南里二区",
         "address":"北京市朝阳区广渠门外大街31号",
         "street_id":"0dc3d82d4a9bb36c74e5b695"
      },
      {
         "location":{
            "lat":39.904949,
            "lng":116.455748
         },
         "uid":"acff56a94789d61e15c90549",
         "detail":1,
         "name":"双花园南里一区",
         "address":"朝阳区双井镇双花园南里一区",
         "street_id":"acff56a94789d61e15c90549"
      },
      {
         "location":{
            "lat":39.898119,
            "lng":116.47633
         },
         "uid":"40faad928f4f5694bca822f5",
         "detail":1,
         "name":"首城国际中心",
         "address":"北京市朝阳区广渠路36号",
         "street_id":"40faad928f4f5694bca822f5"
      },
      {
         "location":{
            "lat":39.895607,
            "lng":116.486221
         },
         "uid":"b158608b5a743612d7851f83",
         "detail":1,
         "telephone":"020-62892596,020-61296999,13560139039",
         "name":"珠江帝景",
         "address":"北京市朝阳区西大望路甲23号",
         "street_id":"b158608b5a743612d7851f83"
      },
      {
         "location":{
            "lat":39.905166,
            "lng":116.493361
         },
         "uid":"4bb049d91334964798005094",
         "detail":1,
         "telephone":"010-87732803;010-52838846",
         "name":"后现代城",
         "address":"北京市朝阳区百子湾路16号",
         "street_id":"4bb049d91334964798005094"
      },
      {
         "location":{
            "lat":39.904524,
            "lng":116.477152
         },
         "uid":"7dffc388f78909e33fe2318c",
         "detail":1,
         "name":"苹果社区",
         "address":"北京市朝阳区百子湾路32号",
         "street_id":"7dffc388f78909e33fe2318c"
      },
      {
         "location":{
            "lat":39.899877,
            "lng":116.477454
         },
         "uid":"4a13623596b3919c5fd4fe5a",
         "detail":1,
         "telephone":"(010)67761786",
         "name":"九龙花园",
         "address":"北京市朝阳区广渠路29号",
         "street_id":"4a13623596b3919c5fd4fe5a"
      },
      {
         "location":{
            "lat":39.903972,
            "lng":116.486688
         },
         "uid":"656fdad470b17a8dd7851f02",
         "detail":1,
         "name":"金港国际",
         "address":"北京市朝阳区西大望路19号",
         "street_id":"656fdad470b17a8dd7851f02"
      },
      {
         "location":{
            "lat":39.900914,
            "lng":116.491523
         },
         "uid":"de2fe8b779c31100471a3271",
         "detail":1,
         "name":"金茂府",
         "address":"北京市朝阳区广渠路15号(广渠路大郊亭西北角)",
         "street_id":"de2fe8b779c31100471a3271"
      },
      {
         "location":{
            "lat":39.893059,
            "lng":116.481803
         },
         "uid":"69fcd6df1ccaf92fcb291595",
         "detail":1,
         "name":"东方雅苑",
         "address":"北京市朝阳区西大望路63号",
         "street_id":"69fcd6df1ccaf92fcb291595"
      },
      {
         "location":{
            "lat":39.905635,
            "lng":116.486772
         },
         "uid":"92b806d289f180fe78b55c94",
         "detail":1,
         "name":"易构空间小区",
         "address":"百子湾路甲16号",
         "street_id":"92b806d289f180fe78b55c94"
      },
      {
         "location":{
            "lat":39.895444,
            "lng":116.482429
         },
         "uid":"3a0fbba8ea8319419fe32195",
         "detail":1,
         "name":"风度柏林小区",
         "address":"朝阳西大望路59号(珠江帝景对面)",
         "street_id":"3a0fbba8ea8319419fe32195"
      },
      {
         "location":{
            "lat":39.903286,
            "lng":116.511425
         },
         "uid":"4cfc7da722436aa830169b9f",
         "detail":1,
         "telephone":"010-67761717",
         "name":"沿海赛洛城",
         "address":"朝阳区百子湾路5号广渠东路33号(广渠路与百子湾路交汇处)",
         "street_id":"4cfc7da722436aa830169b9f"
      },
      {
         "location":{
            "lat":39.900749,
            "lng":116.498974
         },
         "uid":"46e86fdd00f6ec6fd03ce395",
         "detail":1,
         "name":"金海国际",
         "address":"北京市朝阳区广渠路21号(东四环路与广渠路交口大郊亭桥东北住宅区",
         "street_id":"46e86fdd00f6ec6fd03ce395"
      },
      {
         "location":{
            "lat":39.906125,
            "lng":116.506214
         },
         "uid":"7d5f3a0a60d160352cb90873",
         "detail":1,
         "name":"金都杭城",
         "address":"朝阳百子湾路石门村路一号",
         "street_id":"7d5f3a0a60d160352cb90873"
      },
      {
         "location":{
            "lat":39.906086,
            "lng":116.508374
         },
         "uid":"75301db50e650f81d12dd643",
         "detail":1,
         "name":"金都心语",
         "address":"百子湾路石门村路一号,朝阳区百子湾西里",
         "street_id":"75301db50e650f81d12dd643"
      },
      {
         "location":{
            "lat":39.901978,
            "lng":116.506283
         },
         "uid":"5508504d6cf5b9c8c7f025f8",
         "detail":1,
         "name":"金泰先锋",
         "address":"北京市朝阳区百子湾石门村路一号(广渠路北侧,东四环大郊亭桥以东600米)",
         "street_id":"5508504d6cf5b9c8c7f025f8"
      },
      {
         "location":{
            "lat":39.897254,
            "lng":116.507034
         },
         "uid":"b6d6d71629540d5d6cc02cc3",
         "detail":1,
         "name":"广华新城",
         "address":"北京市朝阳区南磨房东四环南路",
         "street_id":"b6d6d71629540d5d6cc02cc3"
      },
      {
         "location":{
            "lat":39.904432,
            "lng":116.505839
         },
         "uid":"55fa2c0b66fcfe531de999a6",
         "detail":1,
         "name":"陆翔佳园",
         "address":"北京市朝阳区百子湾西里",
         "street_id":"55fa2c0b66fcfe531de999a6"
      },
      {
         "location":{
            "lat":39.903697,
            "lng":116.499478
         },
         "uid":"7d8d6eb777b150475fbe865b",
         "detail":1,
         "name":"建工动力苑",
         "address":"西临金长安,东北侧为大成国际公寓,南临规划百子湾南路",
         "street_id":"7d8d6eb777b150475fbe865b"
      },
      {
         "location":{
            "lat":39.899918,
            "lng":116.508564
         },
         "uid":"680fb703f7a4eee18bb988cd",
         "detail":1,
         "name":"中水电住宅小区",
         "address":"百子湾西里402",
         "street_id":"680fb703f7a4eee18bb988cd"
      },
      {
         "location":{
            "lat":39.90262,
            "lng":116.506312
         },
         "uid":"ca507a9f2b369d22b6147f8e",
         "detail":1,
         "telephone":"010-87718888",
         "name":"金泰先锋-北区",
         "address":"百子湾西里石门村路1号",
         "street_id":"ca507a9f2b369d22b6147f8e"
      },
      {
         "location":{
            "lat":39.905409,
            "lng":116.517958
         },
         "uid":"15e1e85e5297e8a158109332",
         "detail":1,
         "telephone":"010-87710003",
         "name":"百子湾家园",
         "address":"百子湾路1号",
         "street_id":"15e1e85e5297e8a158109332"
      },
      {
         "location":{
            "lat":39.896106,
            "lng":116.527523
         },
         "uid":"72e57fd7de1fafaff9dc8596",
         "detail":1,
         "name":"观音惠园",
         "address":"北京市朝阳区四惠华能桥西南角观音惠园",
         "street_id":"72e57fd7de1fafaff9dc8596"
      },
      {
         "location":{
            "lat":39.91069,
            "lng":116.533344
         },
         "uid":"e23a1379e7e65a80a7c7561b",
         "detail":1,
         "name":"高碑店新村一区",
         "address":"北京市朝阳区高碑店高碑店路",
         "street_id":"e23a1379e7e65a80a7c7561b"
      },
      {
         "location":{
            "lat":39.905467,
            "lng":116.519481
         },
         "uid":"f696f3c2fa3231eb1a11d596",
         "detail":1,
         "name":"百子湾家园-B区",
         "address":"北京市朝阳区百子湾1号",
         "street_id":"f696f3c2fa3231eb1a11d596"
      },
      {
         "location":{
            "lat":39.89346,
            "lng":116.52939
         },
         "uid":"be1ea5ef1cbfe1bc14948e32",
         "detail":1,
         "name":"观音景园",
         "address":"朝阳区王四营观音景园",
         "street_id":"be1ea5ef1cbfe1bc14948e32"
      },
      {
         "location":{
            "lat":39.904666,
            "lng":116.518618
         },
         "uid":"b0d056f23998357ecbc3db96",
         "detail":1,
         "name":"百子湾家园-C区",
         "address":"北京市朝阳区百子湾1号",
         "street_id":"b0d056f23998357ecbc3db96"
      },
      {
         "location":{
            "lat":39.906367,
            "lng":116.51444
         },
         "uid":"373cf7572de0e96e4254d796",
         "detail":1,
         "telephone":"13488756526",
         "name":"百子湾家园-A区",
         "address":"北京市朝阳区百子湾1号",
         "street_id":"373cf7572de0e96e4254d796"
      },
      {
         "location":{
            "lat":39.911893,
            "lng":116.521983
         },
         "uid":"18ab9d5f2802da43ab059dfa",
         "detail":1,
         "name":"水南庄壹号",
         "address":"北京市朝阳区惠河南街",
         "street_id":"18ab9d5f2802da43ab059dfa"
      },
      {
         "location":{
            "lat":39.901866,
            "lng":116.52247
         },
         "uid":"5babfd6599dd1ddb22f01757",
         "detail":1,
         "telephone":"(010)52851988",
         "name":"阳光家园",
         "address":"北京市朝阳区广渠路",
         "street_id":"5babfd6599dd1ddb22f01757"
      },
      {
         "location":{
            "lat":39.893656,
            "lng":116.527478
         },
         "uid":"dfc496b672698fd28936eed9",
         "detail":1,
         "name":"观音景园-西区",
         "address":"石板房南街",
         "street_id":"dfc496b672698fd28936eed9"
      },
      {
         "location":{
            "lat":39.911356,
            "lng":116.548953
         },
         "uid":"382e582c694ae99809a8d499",
         "detail":1,
         "name":"陶家湾",
         "address":"高碑店",
         "street_id":"382e582c694ae99809a8d499"
      },
      {
         "location":{
            "lat":39.903789,
            "lng":116.551382
         },
         "uid":"1634ade6a76db0cc6c476014",
         "detail":1,
         "name":"北京高碑店文化园社区",
         "address":"北京市朝阳区广渠路与文化新大街交叉口东北100米",
         "street_id":"1634ade6a76db0cc6c476014"
      },
      {
         "location":{
            "lat":39.910688,
            "lng":116.543879
         },
         "uid":"29a71a54b3d16f9728d7abfa",
         "detail":1,
         "name":"A加专属形象化妆培训机构",
         "address":"朝阳区高碑店东区D22-7",
         "street_id":"29a71a54b3d16f9728d7abfa"
      },
      {
         "location":{
            "lat":39.911821,
            "lng":116.549216
         },
         "uid":"d8a75f84b16f9c1f8bb98829",
         "detail":1,
         "name":"陶家湾-1号楼",
         "address":"北京市朝阳区陶家湾1号楼",
         "street_id":"d8a75f84b16f9c1f8bb98829"
      },
      {
         "uid":"2b04e370ad402674932ca3a6",
         "detail":1,
         "location":{
            "lat":39.904071,
            "lng":116.545965
         },
         "name":"亚北青社区",
         "address":"北京市朝阳区文化新大街15号"
      },
      {
         "location":{
            "lat":39.911424,
            "lng":116.548412
         },
         "uid":"a5fff2bb306a0ba54054d7f6",
         "detail":1,
         "name":"陶家湾-5号楼",
         "address":"北京市朝阳区陶家湾5号楼",
         "street_id":"a5fff2bb306a0ba54054d7f6"
      },
      {
         "location":{
            "lat":39.911443,
            "lng":116.549249
         },
         "uid":"1b820b1b3f38906602294f87",
         "detail":1,
         "name":"陶家湾-2号楼",
         "address":"北京市朝阳区陶家湾2号楼",
         "street_id":"1b820b1b3f38906602294f87"
      },
      {
         "location":{
            "lat":39.911081,
            "lng":116.548388
         },
         "uid":"37534c473f1681ba17b54ba4",
         "detail":1,
         "name":"陶家湾-4号楼",
         "address":"北京市朝阳区陶家湾4号楼",
         "street_id":"37534c473f1681ba17b54ba4"
      },
      {
         "location":{
            "lat":39.908942,
            "lng":116.538351
         },
         "uid":"56e88cba07888f65a5c756a8",
         "detail":1,
         "name":"北京市农村商业银行ATM(十里堡住宅小区东)",
         "address":"高碑店古家具一条街56号附近",
         "street_id":"56e88cba07888f65a5c756a8"
      },
      {
         "location":{
            "lat":39.909062,
            "lng":116.544177
         },
         "uid":"56e88cba07bd8f65a5c75697",
         "detail":1,
         "telephone":"(010)85765764",
         "name":"古圣堂(陶家湾住宅小区南)",
         "address":"高碑店古家具一条街204号",
         "street_id":"56e88cba07bd8f65a5c75697"
      },
      {
         "location":{
            "lat":39.908666,
            "lng":116.567925
         },
         "uid":"bb45321b747ae8c340e1920d",
         "detail":1,
         "name":"玲珑山",
         "address":"北京市朝阳区新房路3号",
         "street_id":"bb45321b747ae8c340e1920d"
      },
      {
         "location":{
            "lat":39.910329,
            "lng":116.562462
         },
         "uid":"7bfa08fc0c6f5b7c25d2bb32",
         "detail":1,
         "name":"北花园小区",
         "address":"北京市朝阳区",
         "street_id":"7bfa08fc0c6f5b7c25d2bb32"
      },
      {
         "location":{
            "lat":39.911007,
            "lng":116.569578
         },
         "uid":"606289fd10ac344da3046491",
         "detail":1,
         "telephone":"(010)65400228",
         "name":"艺水芳园",
         "address":"北花园街1号院",
         "street_id":"606289fd10ac344da3046491"
      },
      {
         "location":{
            "lat":39.910286,
            "lng":116.554413
         },
         "uid":"39a926e38b3a0af4f8f0cb21",
         "detail":1,
         "name":"北花园小区3号院",
         "address":"北京市朝阳区惠河南街",
         "street_id":"39a926e38b3a0af4f8f0cb21"
      },
      {
         "location":{
            "lat":39.908847,
            "lng":116.564594
         },
         "uid":"4bb049d91337964798005091",
         "detail":1,
         "name":"天泰北双苑小区",
         "address":"近传媒大学南北花园街6号院",
         "street_id":"4bb049d91337964798005091"
      },
      {
         "location":{
            "lat":39.908504,
            "lng":116.57047
         },
         "uid":"b1c556e8c1b58d0cb5265591",
         "detail":1,
         "name":"天泰新房苑小区",
         "address":"朝阳区建国路双桥路口南100米",
         "street_id":"b1c556e8c1b58d0cb5265591"
      },
      {
         "location":{
            "lat":39.910852,
            "lng":116.567185
         },
         "uid":"1aa0feb44c0451a8b14c4979",
         "detail":1,
         "name":"艺水芳园-学生公寓",
         "address":"北花园街1号院2",
         "street_id":"1aa0feb44c0451a8b14c4979"
      },
      {
         "location":{
            "lat":39.910257,
            "lng":116.567805
         },
         "uid":"f7fbb9ede59dc490a1d23081",
         "detail":1,
         "name":"艺水芳园-10号楼",
         "address":"北京市朝阳区艺水芳园学生公寓10号楼",
         "street_id":"f7fbb9ede59dc490a1d23081"
      },
      {
         "location":{
            "lat":39.909558,
            "lng":116.571661
         },
         "uid":"97ad5566b50f2495c51e516f",
         "detail":1,
         "name":"天泰新房苑小区-6号楼",
         "address":"北京市朝阳区天泰新房苑小区6号楼",
         "street_id":"97ad5566b50f2495c51e516f"
      },
      {
         "location":{
            "lat":39.91086,
            "lng":116.568475
         },
         "uid":"23fd48725ce3ec64e8e58230",
         "detail":1,
         "name":"北花园小区1号院4号楼",
         "address":"北京市朝阳区北花园街1号院4号楼",
         "street_id":"23fd48725ce3ec64e8e58230"
      },
      {
         "location":{
            "lat":39.924594,
            "lng":116.471967
         },
         "uid":"f8b57237b993f5f78bf15d9f",
         "detail":1,
         "telephone":"(010)65946688",
         "name":"首创禧瑞都",
         "address":"北京市朝阳区朝阳路139号",
         "street_id":"f8b57237b993f5f78bf15d9f"
      },
      {
         "location":{
            "lat":39.931336,
            "lng":116.465487
         },
         "uid":"88e7c5e1ff4996e5e31103d7",
         "detail":1,
         "telephone":"(010)65926666",
         "name":"圣世一品",
         "address":"朝阳白家庄西里5号，京广中心大厦北100米",
         "street_id":"88e7c5e1ff4996e5e31103d7"
      },
      {
         "location":{
            "lat":39.930251,
            "lng":116.468918
         },
         "uid":"373cf75790ec34104254d799",
         "detail":1,
         "name":"紫荆豪庭",
         "address":"东三环北路30号",
         "street_id":"373cf75790ec34104254d799"
      },
      {
         "location":{
            "lat":39.930982,
            "lng":116.463259
         },
         "uid":"0523a14177a7491db33c818d",
         "detail":1,
         "name":"核桃园北里小区",
         "address":"北京市朝阳区中纺街28号",
         "street_id":"0523a14177a7491db33c818d"
      },
      {
         "location":{
            "lat":39.920711,
            "lng":116.465138
         },
         "uid":"e3082848beda12bfb24c4994",
         "detail":1,
         "telephone":"(010)51316100,(010)51316255",
         "name":"旺座中心公寓",
         "address":"景华南街1",
         "street_id":"e3082848beda12bfb24c4994"
      },
      {
         "location":{
            "lat":39.930404,
            "lng":116.466561
         },
         "uid":"6deee3086a5d396a28fc488f",
         "detail":1,
         "name":"向军北里小区",
         "address":"向军北里一巷与向军北里三巷交叉口东南100米",
         "street_id":"6deee3086a5d396a28fc488f"
      },
      {
         "location":{
            "lat":39.93223,
            "lng":116.466818
         },
         "uid":"b533ea4a8960f0584f6d4612",
         "detail":1,
         "telephone":"(010)65091888",
         "name":"世茂·宫园",
         "address":"东三环北路55号(近康莱德酒店)",
         "street_id":"b533ea4a8960f0584f6d4612"
      },
      {
         "location":{
            "lat":39.923121,
            "lng":116.465401
         },
         "uid":"8f4917c3eabe0155a2046470",
         "detail":1,
         "name":"御金台",
         "address":"东三环中路7号院7号楼北京财富购物中心地下一层",
         "street_id":"8f4917c3eabe0155a2046470"
      },
      {
         "location":{
            "lat":39.912554,
            "lng":116.459755
         },
         "uid":"9ae47f7f782c0baa59bbbc50",
         "detail":1,
         "name":"建外SOHO西区-18号楼",
         "address":"北京市朝阳区建外SOHO西区18号楼(东三环中路39号院18号楼)",
         "street_id":"9ae47f7f782c0baa59bbbc50"
      },
      {
         "location":{
            "lat":39.918047,
            "lng":116.458962
         },
         "uid":"8c66a290aa638016b13c81f9",
         "detail":1,
         "name":"怡禾国际公寓温莎大道",
         "address":"北京市朝阳区光华西里1号(汉威大厦对面)",
         "street_id":"8c66a290aa638016b13c81f9"
      },
      {
         "location":{
            "lat":39.918395,
            "lng":116.482333
         },
         "uid":"844a750e9369f2b963685894",
         "detail":1,
         "telephone":"13601352288",
         "name":"阳光100国际公寓",
         "address":"北京市朝阳区光华路2号(近大望路地铁站)",
         "street_id":"844a750e9369f2b963685894"
      },
      {
         "location":{
            "lat":39.917584,
            "lng":116.486759
         },
         "uid":"3a7c4334eb94932240e19244",
         "detail":1,
         "telephone":"(010)85951166",
         "name":"华贸公寓",
         "address":"朝阳西大望路6号(国贸桥东900米)",
         "street_id":"3a7c4334eb94932240e19244"
      },
      {
         "location":{
            "lat":39.931578,
            "lng":116.48379
         },
         "uid":"55776829d305f4a03904b152",
         "detail":1,
         "name":"万科公园五号",
         "address":"北京市朝阳区金台路十字路口西北角甜水西园",
         "street_id":"55776829d305f4a03904b152"
      },
      {
         "location":{
            "lat":39.931471,
            "lng":116.492627
         },
         "uid":"c21db9e5e9f9a09a01ff2dbb",
         "detail":1,
         "telephone":"(010)65013744",
         "name":"道家园小区",
         "address":"甜水园东街,靠近东四环红领",
         "street_id":"c21db9e5e9f9a09a01ff2dbb"
      },
      {
         "location":{
            "lat":39.920145,
            "lng":116.491397
         },
         "uid":"947662722b7514fd7dc87608",
         "detail":1,
         "name":"慈云寺",
         "address":"北京市朝阳区东四环",
         "street_id":"947662722b7514fd7dc87608"
      },
      {
         "location":{
            "lat":39.931904,
            "lng":116.489363
         },
         "uid":"64ff3be1fa1a20a290114cfc",
         "detail":1,
         "telephone":"(010)65043244",
         "name":"甜水园东里",
         "address":"甜水园东里40",
         "street_id":"64ff3be1fa1a20a290114cfc"
      },
      {
         "location":{
            "lat":39.91605,
            "lng":116.481121
         },
         "uid":"81d6a509e04a54416e20b930",
         "detail":1,
         "name":"金地国际花园",
         "address":"北京市朝阳区金地国际花园朝阳区建国路91号",
         "street_id":"81d6a509e04a54416e20b930"
      },
      {
         "location":{
            "lat":39.924827,
            "lng":116.486663
         },
         "uid":"c204978bd73ada0cbb17e798",
         "detail":1,
         "name":"红庙北里小区",
         "address":"北京市朝阳区朝阳北路和金台路交界处",
         "street_id":"c204978bd73ada0cbb17e798"
      },
      {
         "location":{
            "lat":39.923515,
            "lng":116.491846
         },
         "uid":"8d461ad1f144c869bb17e711",
         "detail":1,
         "name":"华业玫瑰东方1号楼",
         "address":"延静里中街甲18号院1号",
         "street_id":"8d461ad1f144c869bb17e711"
      },
      {
         "location":{
            "lat":39.924397,
            "lng":116.477186
         },
         "uid":"606ab0d069f0a1290f3dda9c",
         "detail":1,
         "name":"金台西路2号院",
         "address":"北京市朝阳区金台西路2号院人民日报社宿舍区南区",
         "street_id":"606ab0d069f0a1290f3dda9c"
      },
      {
         "location":{
            "lat":39.920799,
            "lng":116.501386
         },
         "uid":"321963b99329d61381a12e7a",
         "detail":1,
         "telephone":"010-65586558",
         "name":"住邦2000",
         "address":"朝阳区八里庄西里100号",
         "street_id":"321963b99329d61381a12e7a"
      },
      {
         "location":{
            "lat":39.919415,
            "lng":116.499492
         },
         "uid":"d1469ee70c110b1e84330477",
         "detail":1,
         "name":"远洋天地",
         "address":"八里庄西里1号",
         "street_id":"d1469ee70c110b1e84330477"
      },
      {
         "location":{
            "lat":39.915983,
            "lng":116.512617
         },
         "uid":"9f97b1c518e74a06b74f5491",
         "detail":1,
         "name":"惠生园小区",
         "address":"北京市朝阳区四惠建国路通惠家园惠民园",
         "street_id":"9f97b1c518e74a06b74f5491"
      },
      {
         "location":{
            "lat":39.919405,
            "lng":116.494287
         },
         "uid":"aad7e782f55f5f779cf779bd",
         "detail":1,
         "name":"东区国际公寓",
         "address":"北京市东四环慈云寺1号院",
         "street_id":"aad7e782f55f5f779cf779bd"
      },
      {
         "location":{
            "lat":39.932004,
            "lng":116.512563
         },
         "uid":"6a92cf437703d36230169b28",
         "detail":1,
         "telephone":"(010)65521817",
         "name":"晨光家园",
         "address":"朝阳北路和石佛营路交叉口",
         "street_id":"6a92cf437703d36230169b28"
      },
      {
         "location":{
            "lat":39.918024,
            "lng":116.504867
         },
         "uid":"a1418eb4b321cd03ebe5821d",
         "detail":1,
         "name":"东恒时代二期",
         "address":"朝阳区八里庄东里甲1号院",
         "street_id":"a1418eb4b321cd03ebe5821d"
      },
      {
         "location":{
            "lat":39.920443,
            "lng":116.509016
         },
         "uid":"c879fa010339a74ac809f096",
         "detail":1,
         "name":"都会华庭",
         "address":"朝阳朝阳区十里堡甲3号院",
         "street_id":"c879fa010339a74ac809f096"
      },
      {
         "location":{
            "lat":39.9157,
            "lng":116.500888
         },
         "uid":"2248a83219843d12b9df8fbb",
         "detail":1,
         "name":"东恒时代一期",
         "address":"金地名京北门",
         "street_id":"2248a83219843d12b9df8fbb"
      },
      {
         "location":{
            "lat":39.916122,
            "lng":116.503507
         },
         "uid":"e4a3495e5d848f6686420e54",
         "detail":1,
         "name":"金地名京小区",
         "address":"朝阳区东四环四惠桥东北角紧临1号地铁四惠站",
         "street_id":"e4a3495e5d848f6686420e54"
      },
      {
         "location":{
            "lat":39.923065,
            "lng":116.499071
         },
         "uid":"521c4a2c0360a9ac82a12ec7",
         "detail":1,
         "telephone":"010-65561888",
         "name":"凯德锦绣",
         "address":"北京市朝阳区慈云寺北里207号",
         "street_id":"521c4a2c0360a9ac82a12ec7"
      },
      {
         "location":{
            "lat":39.916449,
            "lng":116.530786
         },
         "uid":"92b806d2de125d8079b55cec",
         "detail":1,
         "name":"兴隆小区",
         "address":"北京市朝阳区建国路29号(朝阳路与青年路交汇处)",
         "street_id":"92b806d2de125d8079b55cec"
      },
      {
         "location":{
            "lat":39.922717,
            "lng":116.518126
         },
         "uid":"b7de7618884a6f2d32f71d10",
         "detail":1,
         "name":"甘露园小区",
         "address":"朝阳区  甘露园1号院",
         "street_id":"b7de7618884a6f2d32f71d10"
      },
      {
         "location":{
            "lat":39.925914,
            "lng":116.529344
         },
         "uid":"cde9e2c74f57d3b7e81e972f",
         "detail":1,
         "name":"天鹅湾",
         "address":"北京市朝阳区甘露园中街",
         "street_id":"cde9e2c74f57d3b7e81e972f"
      },
      {
         "location":{
            "lat":39.927336,
            "lng":116.522065
         },
         "uid":"7d5f3a0a89bb07482db9089b",
         "detail":1,
         "name":"青年汇佳园小区",
         "address":"北京市朝阳区甘露园中里2号",
         "street_id":"7d5f3a0a89bb07482db9089b"
      },
      {
         "location":{
            "lat":39.924106,
            "lng":116.523011
         },
         "uid":"53cebd509fffa9612b02e189",
         "detail":1,
         "name":"朝阳园",
         "address":"北京市朝阳区甘露园南里25号",
         "street_id":"53cebd509fffa9612b02e189"
      },
      {
         "location":{
            "lat":39.923988,
            "lng":116.518287
         },
         "uid":"066121e6615ce9ead7851f61",
         "detail":1,
         "name":"芳菁苑小区",
         "address":"北京市朝阳区甘露园1号",
         "street_id":"066121e6615ce9ead7851f61"
      },
      {
         "location":{
            "lat":39.917356,
            "lng":116.51777
         },
         "uid":"6d964b4cfc78503cf723104f",
         "detail":1,
         "telephone":"010-85778888",
         "name":"华腾世纪总部公园",
         "address":"北京市朝阳区八里庄陈家林九号院",
         "street_id":"6d964b4cfc78503cf723104f"
      },
      {
         "location":{
            "lat":39.921195,
            "lng":116.523434
         },
         "uid":"7320b632b6a00609f33cba78",
         "detail":1,
         "name":"甘露园南里二社区",
         "address":"北京市朝阳区青年路南口公交站点四惠东地铁站",
         "street_id":"7320b632b6a00609f33cba78"
      },
      {
         "location":{
            "lat":39.918002,
            "lng":116.522763
         },
         "uid":"04bdf4a319a6c14f344aae96",
         "detail":1,
         "name":"康家园小区",
         "address":"北京市朝阳区高碑店北路",
         "street_id":"04bdf4a319a6c14f344aae96"
      },
      {
         "location":{
            "lat":39.921617,
            "lng":116.519095
         },
         "uid":"4eb3b5336c17400843024542",
         "detail":1,
         "name":"甘露园南里小区一区",
         "address":"朝阳路与甘露园南里交界东南",
         "street_id":"4eb3b5336c17400843024542"
      },
      {
         "location":{
            "lat":39.927466,
            "lng":116.542574
         },
         "uid":"a0f57e9bc10c9f7914948e80",
         "detail":1,
         "name":"金隅汇星苑",
         "address":"朝阳北路与东五环路的交叉口西南",
         "street_id":"a0f57e9bc10c9f7914948e80"
      },
      {
         "location":{
            "lat":39.926246,
            "lng":116.538046
         },
         "uid":"a5b895cbb745bada95ca07e6",
         "detail":1,
         "name":"金隅泰和园小区",
         "address":"北京市朝阳区",
         "street_id":"a5b895cbb745bada95ca07e6"
      },
      {
         "location":{
            "lat":39.928327,
            "lng":116.536155
         },
         "uid":"c7eca12b5b57d637e015f989",
         "detail":1,
         "name":"富华家园",
         "address":"黄杉木店路186号",
         "street_id":"c7eca12b5b57d637e015f989"
      },
      {
         "location":{
            "lat":39.926271,
            "lng":116.535344
         },
         "uid":"1020060fe24469a61994c689",
         "detail":1,
         "name":"阿曼寓所(黄衫木店)",
         "address":"黄杉木店路188号",
         "street_id":"1020060fe24469a61994c689"
      },
      {
         "location":{
            "lat":39.923244,
            "lng":116.552328
         },
         "uid":"d305db1f2eccf93e922ca389",
         "detail":1,
         "name":"绿岛苑",
         "address":"北京市朝阳区大黄庄1号",
         "street_id":"d305db1f2eccf93e922ca389"
      },
      {
         "location":{
            "lat":39.929106,
            "lng":116.541149
         },
         "uid":"0d826e500d64629ef7231016",
         "detail":1,
         "telephone":"010-85766688",
         "name":"熙悦尚郡",
         "address":"北京市朝阳区朝阳北路66号",
         "street_id":"0d826e500d64629ef7231016"
      },
      {
         "location":{
            "lat":39.9254,
            "lng":116.542481
         },
         "uid":"aaf891402389b539276e98a6",
         "detail":1,
         "name":"南太平庄北巷小区",
         "address":"朝阳路高井民航医院附近",
         "street_id":"aaf891402389b539276e98a6"
      },
      {
         "location":{
            "lat":39.920965,
            "lng":116.55272
         },
         "uid":"e2e88caa68f0d2f35abbbcea",
         "detail":1,
         "name":"大黄庄南里小区",
         "address":"北京市朝阳区大黄庄南里11号楼",
         "street_id":"e2e88caa68f0d2f35abbbcea"
      },
      {
         "location":{
            "lat":39.920903,
            "lng":116.552252
         },
         "uid":"d8470784d87e54d9018972d0",
         "detail":1,
         "name":"妇联小区",
         "address":"北京市朝阳区花北西社区位于朝阳路南侧,东临花北东社区,西靠五环路,南接京通路,北至朝阳路",
         "street_id":"d8470784d87e54d9018972d0"
      },
      {
         "location":{
            "lat":39.920032,
            "lng":116.552471
         },
         "uid":"2527be1ea0e0aeb34bfc8d96",
         "detail":1,
         "name":"花北西社区",
         "address":"朝阳路南侧，大黄庄桥东南260米",
         "street_id":"2527be1ea0e0aeb34bfc8d96"
      },
      {
         "location":{
            "lat":39.913968,
            "lng":116.567723
         },
         "uid":"4e96033e7861c0f22bd7ab64",
         "detail":1,
         "name":"珠江绿洲家园",
         "address":"朝阳区建国路18号，城铁八通线广播学院站南",
         "street_id":"4e96033e7861c0f22bd7ab64"
      },
      {
         "location":{
            "lat":39.928581,
            "lng":116.558705
         },
         "uid":"7388dffdd0b1eb96d3ff2332",
         "detail":1,
         "name":"瑞和国际",
         "address":"北京市朝阳区定福庄北街甲15号",
         "street_id":"7388dffdd0b1eb96d3ff2332"
      },
      {
         "location":{
            "lat":39.922106,
            "lng":116.567448
         },
         "uid":"c69aea3492517446b45f1e80",
         "detail":1,
         "name":"定福庄北里-1号院",
         "address":"北京市朝阳路辅路",
         "street_id":"c69aea3492517446b45f1e80"
      },
      {
         "location":{
            "lat":39.92205,
            "lng":116.562283
         },
         "uid":"7fbb9448bd7bb02c4f3a5941",
         "detail":1,
         "name":"聚福苑小区",
         "address":"传媒北门马路对面",
         "street_id":"7fbb9448bd7bb02c4f3a5941"
      },
      {
         "location":{
            "lat":39.925252,
            "lng":116.560777
         },
         "uid":"3ea9cd004a0330318bfc06da",
         "detail":1,
         "name":"福怡苑小区",
         "address":"朝阳区朝阳路定福庄北街",
         "street_id":"3ea9cd004a0330318bfc06da"
      },
      {
         "location":{
            "lat":39.927473,
            "lng":116.564907
         },
         "uid":"3a0a78bda0f186f96218099b",
         "detail":1,
         "name":"美然动力街区-A3区",
         "address":"朝阳定福庄定福庄西村甲1号院",
         "street_id":"3a0a78bda0f186f96218099b"
      },
      {
         "location":{
            "lat":39.926723,
            "lng":116.559091
         },
         "uid":"2527be1ea0f7aeb34bfc8d89",
         "detail":1,
         "name":"金福家园",
         "address":"北京市朝阳区朝阳北路与定福庄北街交汇处南行400米路西",
         "street_id":"2527be1ea0f7aeb34bfc8d89"
      },
      {
         "location":{
            "lat":39.92434,
            "lng":116.561216
         },
         "uid":"e85e2527b806635394f08c89",
         "detail":1,
         "name":"金星小区",
         "address":"定福庄北街",
         "street_id":"e85e2527b806635394f08c89"
      },
      {
         "location":{
            "lat":39.915786,
            "lng":116.573694
         },
         "uid":"f371308ed03eae5052e5c528",
         "detail":1,
         "name":"三间房南里7号院",
         "address":"北京市朝阳区建国路",
         "street_id":"f371308ed03eae5052e5c528"
      },
      {
         "location":{
            "lat":39.927365,
            "lng":116.57344
         },
         "uid":"01f559cd45a0d68351e5c5df",
         "detail":1,
         "telephone":"(010)67489981",
         "name":"福盈家园-1号院",
         "address":"三间房西路1号",
         "street_id":"01f559cd45a0d68351e5c5df"
      },
      {
         "location":{
            "lat":39.949516,
            "lng":116.455379
         },
         "uid":"d05808c0acea47acad31e5c4",
         "detail":1,
         "name":"塔园外交公寓",
         "address":"新东路1号",
         "street_id":"d05808c0acea47acad31e5c4"
      },
      {
         "location":{
            "lat":39.943347,
            "lng":116.456083
         },
         "uid":"07f3c8b5abc4cf1f6340a9b6",
         "detail":1,
         "telephone":"(010)64178386",
         "name":"首开幸福广场",
         "address":"北京市朝阳区幸福二村38",
         "street_id":"07f3c8b5abc4cf1f6340a9b6"
      },
      {
         "location":{
            "lat":39.944634,
            "lng":116.457691
         },
         "uid":"3c0ea7c509650ee2fbf0cb1a",
         "detail":1,
         "telephone":"(010)64686688",
         "name":"首开铂郡",
         "address":"朝阳区新东路8号附近",
         "street_id":"3c0ea7c509650ee2fbf0cb1a"
      },
      {
         "location":{
            "lat":39.934603,
            "lng":116.457476
         },
         "uid":"5af9c917239610fadc1e526f",
         "detail":1,
         "name":"康堡花园",
         "address":"工人体育场东路8号",
         "street_id":"5af9c917239610fadc1e526f"
      },
      {
         "location":{
            "lat":39.935019,
            "lng":116.466595
         },
         "uid":"f757e6eee5c17817270bd08d",
         "detail":1,
         "telephone":"010-58707777",
         "name":"富力·爱丁堡公馆",
         "address":"朝阳区白家庄路1号",
         "street_id":"f757e6eee5c17817270bd08d"
      },
      {
         "location":{
            "lat":39.940164,
            "lng":116.464855
         },
         "uid":"f757e6eee5c67817270bd08c",
         "detail":1,
         "name":"三里屯外交公寓",
         "address":"北京市朝阳区工人体育场北路1号",
         "street_id":"f757e6eee5c67817270bd08c"
      },
      {
         "location":{
            "lat":39.934166,
            "lng":116.460474
         },
         "uid":"e2ae43228354515cfa42b29b",
         "detail":1,
         "name":"中纺里社区",
         "address":"东大桥斜街6",
         "street_id":"e2ae43228354515cfa42b29b"
      },
      {
         "location":{
            "lat":39.937197,
            "lng":116.466388
         },
         "uid":"44c8204ac0a1873395ca0738",
         "detail":1,
         "telephone":"(010)59258888",
         "name":"君汇雅居",
         "address":"北京市朝阳区白家庄北里3号",
         "street_id":"44c8204ac0a1873395ca0738"
      },
      {
         "location":{
            "lat":39.944358,
            "lng":116.458229
         },
         "uid":"e87a633d676999f0f6c59c00",
         "detail":1,
         "name":"幸福三村小区",
         "address":"东直门外大街16",
         "street_id":"e87a633d676999f0f6c59c00"
      },
      {
         "location":{
            "lat":39.952149,
            "lng":116.474042
         },
         "uid":"5508504dda7147b6c7f02579",
         "detail":1,
         "name":"富丽华园",
         "address":"枣营北里麦子店街40号",
         "street_id":"5508504dda7147b6c7f02579"
      },
      {
         "location":{
            "lat":39.938278,
            "lng":116.486865
         },
         "uid":"009bd93d616500a8fbdc85c5",
         "detail":1,
         "name":"棕榈泉国际公寓",
         "address":"朝阳朝阳公园南路8号",
         "street_id":"009bd93d616500a8fbdc85c5"
      },
      {
         "location":{
            "lat":39.938195,
            "lng":116.492829
         },
         "uid":"c057049261324815631c6708",
         "detail":1,
         "telephone":"(010)64616673",
         "name":"公园大道小区",
         "address":"北京市朝阳区朝阳公园南路6号",
         "street_id":"c057049261324815631c6708"
      },
      {
         "location":{
            "lat":39.938258,
            "lng":116.489995
         },
         "uid":"fad01ba859191593a21de945",
         "detail":1,
         "name":"丽水嘉园",
         "address":"朝阳公园南路与甜水园东街交叉口西南",
         "street_id":"fad01ba859191593a21de945"
      },
      {
         "location":{
            "lat":39.934135,
            "lng":116.488349
         },
         "uid":"083a55fa3e1e1079256e988c",
         "detail":1,
         "name":"甜水园北里小区",
         "address":"北京市朝阳区甜水园北里7号楼",
         "street_id":"083a55fa3e1e1079256e988c"
      },
      {
         "location":{
            "lat":39.933517,
            "lng":116.484413
         },
         "uid":"a12baa404f884b55e956fa9f",
         "detail":1,
         "name":"秀水园小区",
         "address":"水碓子北里",
         "street_id":"a12baa404f884b55e956fa9f"
      },
      {
         "location":{
            "lat":39.935041,
            "lng":116.488367
         },
         "uid":"db1f39d42997a86ff4c59c8c",
         "detail":1,
         "name":"甜水园小区",
         "address":"朝阳区金台路甜水园东街2号",
         "street_id":"db1f39d42997a86ff4c59c8c"
      },
      {
         "location":{
            "lat":39.937423,
            "lng":116.481446
         },
         "uid":"d305db1f2ec0f93e922ca38d",
         "detail":1,
         "name":"华阳小区",
         "address":"朝阳六里屯西口243号",
         "street_id":"d305db1f2ec0f93e922ca38d"
      },
      {
         "location":{
            "lat":39.945362,
            "lng":116.480304
         },
         "uid":"4cf8d24e39ffc6e49df7798c",
         "detail":1,
         "telephone":"(010)65696868",
         "name":"九号公寓",
         "address":"北京市朝阳区朝阳公园西路九号",
         "street_id":"4cf8d24e39ffc6e49df7798c"
      },
      {
         "location":{
            "lat":39.936446,
            "lng":116.483713
         },
         "uid":"04bdf4a319bcc14f344aae8c",
         "detail":1,
         "name":"万科东第",
         "address":"朝阳区朝阳公园南侧，棕榈泉国际公寓西侧",
         "street_id":"04bdf4a319bcc14f344aae8c"
      },
      {
         "location":{
            "lat":39.941343,
            "lng":116.477497
         },
         "uid":"bba8738847eea5a0bda8228d",
         "detail":1,
         "name":"博雅园",
         "address":"北京市朝阳区农展馆南路9号",
         "street_id":"bba8738847eea5a0bda8228d"
      },
      {
         "location":{
            "lat":39.940429,
            "lng":116.510761
         },
         "uid":"5ce2637dd0b8682cae31e52e",
         "detail":1,
         "name":"石佛营东里小区",
         "address":"北京市朝阳区姚家园路",
         "street_id":"5ce2637dd0b8682cae31e52e"
      },
      {
         "location":{
            "lat":39.940956,
            "lng":116.500782
         },
         "uid":"e30828487b2b57c2b34c49e2",
         "detail":1,
         "name":"观湖国际",
         "address":"东四环北路88号",
         "street_id":"e30828487b2b57c2b34c49e2"
      },
      {
         "location":{
            "lat":39.937097,
            "lng":116.514054
         },
         "uid":"6deee3086a50396a28fc4888",
         "detail":1,
         "name":"炫特区",
         "address":"朝阳十里堡一号",
         "street_id":"6deee3086a50396a28fc4888"
      },
      {
         "location":{
            "lat":39.936122,
            "lng":116.513015
         },
         "uid":"f0f0590f65b0762b1d1d117a",
         "detail":1,
         "name":"炫特嘉园",
         "address":"朝阳区十里堡北区一号",
         "street_id":"f0f0590f65b0762b1d1d117a"
      },
      {
         "location":{
            "lat":39.93938,
            "lng":116.505152
         },
         "uid":"5b25f4465d71439410293576",
         "detail":1,
         "name":"石佛营西里小区",
         "address":"姚家园路与石佛营路交叉口西南角",
         "street_id":"5b25f4465d71439410293576"
      },
      {
         "location":{
            "lat":39.942943,
            "lng":116.506425
         },
         "uid":"af28aa6d757da72eaecb66ba",
         "detail":1,
         "telephone":"15811507766",
         "name":"泛海国际居住区·香海园",
         "address":"姚家园路95号",
         "street_id":"af28aa6d757da72eaecb66ba"
      },
      {
         "location":{
            "lat":39.934245,
            "lng":116.505735
         },
         "uid":"6475e83491426611c9fa5f2a",
         "detail":1,
         "name":"八里庄北里小区",
         "address":"北京市朝阳区石佛营路",
         "street_id":"6475e83491426611c9fa5f2a"
      },
      {
         "location":{
            "lat":39.935905,
            "lng":116.506375
         },
         "uid":"7e0079c886d06d60faf0cbd0",
         "detail":1,
         "name":"保利东郡(八里庄店)",
         "address":"东四环朝阳公园桥东南角200米、石佛营东里",
         "street_id":"7e0079c886d06d60faf0cbd0"
      },
      {
         "location":{
            "lat":39.944885,
            "lng":116.503066
         },
         "uid":"e52b312840827c3bbca82297",
         "detail":1,
         "name":"泛海国际樱海园",
         "address":"北京市朝阳区",
         "street_id":"e52b312840827c3bbca82297"
      },
      {
         "location":{
            "lat":39.936918,
            "lng":116.507526
         },
         "uid":"610852117d7f3fddc51b757a",
         "detail":1,
         "name":"华业玫瑰郡",
         "address":"八里庄北里128号",
         "street_id":"610852117d7f3fddc51b757a"
      },
      {
         "location":{
            "lat":39.939692,
            "lng":116.519657
         },
         "uid":"90ba8b55964bb2564e776e0e",
         "detail":1,
         "telephone":"010-52065301",
         "name":"国美第一城",
         "address":"青年路西里3号",
         "street_id":"90ba8b55964bb2564e776e0e"
      },
      {
         "location":{
            "lat":39.941649,
            "lng":116.52448
         },
         "uid":"e810ca2011d15876e5073824",
         "detail":1,
         "name":"小悦中心",
         "address":"青年路12号",
         "street_id":"e810ca2011d15876e5073824"
      },
      {
         "location":{
            "lat":39.933666,
            "lng":116.517906
         },
         "uid":"82cfb2541df5e11243ab9ae3",
         "detail":1,
         "name":"润枫水尚",
         "address":"北京市朝阳区朝阳北路与青年路交汇口向北150米",
         "street_id":"82cfb2541df5e11243ab9ae3"
      },
      {
         "location":{
            "lat":39.949494,
            "lng":116.529257
         },
         "uid":"5e53af1ab5c7c5214151c033",
         "detail":1,
         "name":"逸翠园",
         "address":"北京市朝阳区姚家园东里",
         "street_id":"5e53af1ab5c7c5214151c033"
      },
      {
         "location":{
            "lat":39.939818,
            "lng":116.520681
         },
         "uid":"3b59b54a9dd78822970319e4",
         "detail":1,
         "name":"国美第一城-3号院",
         "address":"青年路西里3号",
         "street_id":"3b59b54a9dd78822970319e4"
      },
      {
         "location":{
            "lat":39.944229,
            "lng":116.531748
         },
         "uid":"8eb48fa15ad1bedbf22d838e",
         "detail":1,
         "telephone":"(010)85575555",
         "name":"银谷美泉",
         "address":"姚家园路甲8号青年路与姚家园路交汇处向东100米",
         "street_id":"8eb48fa15ad1bedbf22d838e"
      },
      {
         "location":{
            "lat":39.949357,
            "lng":116.527052
         },
         "uid":"14e15b68dc8afe57c9fa5f20",
         "detail":1,
         "name":"御翠·尚府",
         "address":"北京市朝阳区姚家园东里5号院",
         "street_id":"14e15b68dc8afe57c9fa5f20"
      },
      {
         "location":{
            "lat":39.948808,
            "lng":116.518592
         },
         "uid":"81d6a50915fe81416f20b99c",
         "detail":1,
         "telephone":"(010)65513311",
         "name":"金隅凤麟洲",
         "address":"北京市朝阳区姚家园西口265号(姚家园路与青年路交汇处西北500米)",
         "street_id":"81d6a50915fe81416f20b99c"
      },
      {
         "location":{
            "lat":39.935485,
            "lng":116.518108
         },
         "uid":"65181692e5f1219b78f79620",
         "detail":1,
         "name":"华纺易城-西区",
         "address":"北京市朝阳区姚家园路114号",
         "street_id":"65181692e5f1219b78f79620"
      },
      {
         "location":{
            "lat":39.933455,
            "lng":116.5217
         },
         "uid":"31f9101bf0ad79c426e0a02a",
         "detail":1,
         "telephone":"(010)85529999",
         "name":"润枫水尚-东区",
         "address":"青年路5号",
         "street_id":"31f9101bf0ad79c426e0a02a"
      },
      {
         "location":{
            "lat":39.934071,
            "lng":116.553461
         },
         "uid":"8cba4bb098911985ad04575b",
         "detail":1,
         "name":"白家楼小区",
         "address":"北京市朝阳区平房路",
         "street_id":"8cba4bb098911985ad04575b"
      },
      {
         "location":{
            "lat":39.934139,
            "lng":116.551293
         },
         "uid":"2e169889e339d6ae220220fd",
         "detail":1,
         "name":"白家楼小区A区-2号楼",
         "address":"北京市朝阳区白家楼小区A区2号楼",
         "street_id":"2e169889e339d6ae220220fd"
      },
      {
         "location":{
            "lat":39.932791,
            "lng":116.553332
         },
         "uid":"7c90ffdc3a5b7ef4b25c6a20",
         "detail":1,
         "name":"白家楼二区82号楼",
         "address":"北京市朝阳区",
         "street_id":"d551bf0379ebde15a0acc403"
      },
      {
         "location":{
            "lat":39.934425,
            "lng":116.554138
         },
         "uid":"c50e6ac55d4cfc2a15948efa",
         "detail":1,
         "name":"白家楼小区B区22号楼",
         "address":"北京市朝阳区白家楼小区C区22号楼",
         "street_id":"eae7737a36ea7b2a3517dcb9"
      },
      {
         "location":{
            "lat":39.934383,
            "lng":116.552698
         },
         "uid":"51d4512d2ee1d8c372210b0d",
         "detail":1,
         "name":"白家楼小区B区-7号楼",
         "address":"北京市朝阳区白家楼小区B区7号楼",
         "street_id":"51d4512d2ee1d8c372210b0d"
      },
      {
         "location":{
            "lat":39.943285,
            "lng":116.5374
         },
         "uid":"af956f673b8d8b8b7adbd2ae",
         "detail":1,
         "name":"福临家园",
         "address":"朝阳区平房乡黄杉木店路东侧",
         "street_id":"af956f673b8d8b8b7adbd2ae"
      },
      {
         "location":{
            "lat":39.934209,
            "lng":116.55271
         },
         "uid":"a7f7a7f68fc4c6c133169b5c",
         "detail":1,
         "name":"白家楼小区B区-2号楼",
         "address":"北京市朝阳区白家楼小区B区2号楼",
         "street_id":"a7f7a7f68fc4c6c133169b5c"
      },
      {
         "location":{
            "lat":39.934662,
            "lng":116.551515
         },
         "uid":"a09af99cea15285edbd89155",
         "detail":1,
         "name":"白家楼小区A区-28号楼",
         "address":"北京市朝阳区白家楼小区A区28号楼",
         "street_id":"a09af99cea15285edbd89155"
      },
      {
         "location":{
            "lat":39.93414,
            "lng":116.551187
         },
         "uid":"dc72adbe401db918d2f49e35",
         "detail":1,
         "name":"白家楼小区A区-1号楼",
         "address":"北京市朝阳区白家楼小区A区1号楼",
         "street_id":"dc72adbe401db918d2f49e35"
      },
      {
         "location":{
            "lat":39.93471,
            "lng":116.553434
         },
         "uid":"e171b582f6d49c9ee9f853e3",
         "detail":1,
         "name":"白家楼小区B区-23号楼",
         "address":"北京市朝阳区白家楼小区B区23号楼",
         "street_id":"e171b582f6d49c9ee9f853e3"
      },
      {
         "location":{
            "lat":39.951896,
            "lng":116.5578
         },
         "uid":"aa40108bf3fdd315c4effb89",
         "detail":1,
         "name":"富东嘉园(朝阳新城小区路)",
         "address":"北京市朝阳区高杨树南里1号楼1单元102",
         "street_id":"aa40108bf3fdd315c4effb89"
      },
      {
         "location":{
            "lat":39.952096,
            "lng":116.564544
         },
         "uid":"c32af27410a218909d82ea5a",
         "detail":1,
         "name":"朝新嘉园东里-三区",
         "address":"北京市朝阳区东坝朝新嘉园东里一区南250米",
         "street_id":"c32af27410a218909d82ea5a"
      },
      {
         "location":{
            "lat":39.952155,
            "lng":116.557327
         },
         "uid":"0ef5f313a5456ade2fe67bda",
         "detail":1,
         "name":"富东嘉园-15号楼",
         "address":"北京市朝阳区富东嘉园15号楼",
         "street_id":"0ef5f313a5456ade2fe67bda"
      },
      {
         "location":{
            "lat":39.95167,
            "lng":116.558734
         },
         "uid":"f9d42769213e88576b49f3be",
         "detail":1,
         "name":"富东嘉园-7号楼",
         "address":"北京市朝阳区富东嘉园7号楼",
         "street_id":"f9d42769213e88576b49f3be"
      },
      {
         "location":{
            "lat":39.95211,
            "lng":116.556736
         },
         "uid":"41f2e19cc2917fe287154144",
         "detail":1,
         "name":"富东嘉园-20号楼",
         "address":"北京市朝阳区富东嘉园20号楼",
         "street_id":"41f2e19cc2917fe287154144"
      },
      {
         "location":{
            "lat":39.933945,
            "lng":116.554511
         },
         "uid":"c201e9eaeb83963f42ab9a28",
         "detail":1,
         "name":"白家楼小区C区-3号楼",
         "address":"北京市朝阳区白家楼小区C区3号楼",
         "street_id":"c201e9eaeb83963f42ab9a28"
      },
      {
         "location":{
            "lat":39.951687,
            "lng":116.564703
         },
         "uid":"8014d64af7a996472b06ce17",
         "detail":1,
         "name":"朝新嘉园东里三区-6号楼",
         "address":"北京市朝阳区朝新嘉园东里三区6号楼",
         "street_id":"8014d64af7a996472b06ce17"
      },
      {
         "location":{
            "lat":39.951213,
            "lng":116.557491
         },
         "uid":"7d0a851202242a6574026995",
         "detail":1,
         "name":"富东嘉园-17号楼",
         "address":"北京市朝阳区富东嘉园17号楼",
         "street_id":"7d0a851202242a6574026995"
      },
      {
         "location":{
            "lat":39.93523,
            "lng":116.556271
         },
         "uid":"d87a1fc2110faa9e76e5b6cd",
         "detail":1,
         "name":"白家楼小区D区-59号楼",
         "address":"北京市朝阳区白家楼小区D区59号楼",
         "street_id":"d87a1fc2110faa9e76e5b6cd"
      },
      {
         "location":{
            "lat":39.950853,
            "lng":116.557515
         },
         "uid":"39d8207058a064859a005075",
         "detail":1,
         "name":"富东嘉园-18号楼",
         "address":"北京市朝阳区富东嘉园18号楼",
         "street_id":"39d8207058a064859a005075"
      },
      {
         "location":{
            "lat":39.971922,
            "lng":116.466583
         },
         "uid":"925c550f17edfab25b3ac88c",
         "detail":1,
         "name":"裘马都",
         "address":"尚家楼路2号",
         "street_id":"925c550f17edfab25b3ac88c"
      },
      {
         "location":{
            "lat":39.966526,
            "lng":116.458063
         },
         "uid":"ff8954cbfc9538b63362126e",
         "detail":1,
         "telephone":"(010)58677600",
         "name":"第三置业东域大厦B座",
         "address":"北京市朝阳区曙光西里甲1号",
         "street_id":"ff8954cbfc9538b63362126e"
      },
      {
         "location":{
            "lat":39.960857,
            "lng":116.47033
         },
         "uid":"6d56e77d0f7d2a407ab55c7f",
         "detail":1,
         "name":"US联邦公寓",
         "address":"东方东路1号",
         "street_id":"6d56e77d0f7d2a407ab55c7f"
      },
      {
         "location":{
            "lat":39.971652,
            "lng":116.458571
         },
         "uid":"4fc3161afbc6cca93b13fd8c",
         "detail":1,
         "name":"曙光里小区",
         "address":"北京市朝阳区曙光里13号楼临6号",
         "street_id":"4fc3161afbc6cca93b13fd8c"
      },
      {
         "location":{
            "lat":39.958823,
            "lng":116.461
         },
         "uid":"41491ab9104adc7b43afe619",
         "detail":1,
         "name":"三源里小区",
         "address":"北京市朝阳区三元桥三源里小区",
         "street_id":"41491ab9104adc7b43afe619"
      },
      {
         "location":{
            "lat":39.955894,
            "lng":116.45486
         },
         "uid":"9e69400dd2f56f881d5800c8",
         "detail":1,
         "name":"新源里西小区",
         "address":"新东路和东外斜街交汇处东侧",
         "street_id":"9e69400dd2f56f881d5800c8"
      },
      {
         "location":{
            "lat":39.962652,
            "lng":116.454421
         },
         "uid":"912b6b26592a85f423f01713",
         "detail":1,
         "telephone":"010-64649247",
         "name":"北京国际友谊花园",
         "address":"朝阳左家庄路甲号（中旅大厦后面）",
         "street_id":"912b6b26592a85f423f01713"
      },
      {
         "location":{
            "lat":39.965299,
            "lng":116.468616
         },
         "uid":"a5cf8e35545f403b8bfc061e",
         "detail":1,
         "name":"霞光里-30号院",
         "address":"霞光里30号院",
         "street_id":"a5cf8e35545f403b8bfc061e"
      },
      {
         "location":{
            "lat":39.954367,
            "lng":116.461334
         },
         "uid":"55fa2c0b7eeaf6531de999ac",
         "detail":1,
         "telephone":"010-84474455,84474323",
         "name":"北京公馆",
         "address":"北京市朝阳区新源南路5号",
         "street_id":"55fa2c0b7eeaf6531de999ac"
      },
      {
         "location":{
            "lat":39.962697,
            "lng":116.473766
         },
         "uid":"72aa251396dcf547067ce88f",
         "detail":1,
         "name":"华远九都汇",
         "address":"朝阳区麦子店西路",
         "street_id":"72aa251396dcf547067ce88f"
      },
      {
         "location":{
            "lat":39.967226,
            "lng":116.493047
         },
         "uid":"750368359bb33baf5f0d028c",
         "detail":1,
         "name":"瞰都嘉园",
         "address":"东四环北路10号",
         "street_id":"750368359bb33baf5f0d028c"
      },
      {
         "location":{
            "lat":39.952517,
            "lng":116.47724
         },
         "uid":"7c5ac37deeb6fd293f9a5e56",
         "detail":1,
         "name":"枣营北里社区",
         "address":"北京市朝阳区麦子店街36号附近",
         "street_id":"7c5ac37deeb6fd293f9a5e56"
      },
      {
         "location":{
            "lat":39.958352,
            "lng":116.482482
         },
         "uid":"2a7a25ece6e810636d3e1b8c",
         "detail":1,
         "name":"亮马名居",
         "address":"朝阳区亮马桥路36号(燕莎商城东800米)",
         "street_id":"2a7a25ece6e810636d3e1b8c"
      },
      {
         "location":{
            "lat":39.970862,
            "lng":116.488222
         },
         "uid":"2c472a33e828c7a98bfc06ec",
         "detail":1,
         "name":"阳光上东c区",
         "address":"将台",
         "street_id":"2c472a33e828c7a98bfc06ec"
      },
      {
         "location":{
            "lat":39.970855,
            "lng":116.490508
         },
         "uid":"08f1f1f5add03aca89db738f",
         "detail":1,
         "name":"安徒生花园",
         "address":"北京市朝阳区东四环北路6号",
         "street_id":"08f1f1f5add03aca89db738f"
      },
      {
         "location":{
            "lat":39.967288,
            "lng":116.49238
         },
         "uid":"fbfb05ad0db0279ac9e33cb6",
         "detail":1,
         "name":"瞰都国际1号楼",
         "address":"朝阳区东四环北路10号瞰都国际大厦",
         "street_id":"fbfb05ad0db0279ac9e33cb6"
      },
      {
         "location":{
            "lat":39.956082,
            "lng":116.476826
         },
         "uid":"f60a15ed88dd7becba17e78d",
         "detail":1,
         "name":"光明公寓",
         "address":"朝阳区亮马桥路42号",
         "street_id":"f60a15ed88dd7becba17e78d"
      },
      {
         "location":{
            "lat":39.953919,
            "lng":116.475944
         },
         "uid":"c5b7f93031b3f1fff603b8c4",
         "detail":1,
         "name":"枣营北里-31号楼",
         "address":"麦子店街50号附近",
         "street_id":"c5b7f93031b3f1fff603b8c4"
      },
      {
         "location":{
            "lat":39.954041,
            "lng":116.476773
         },
         "uid":"dda2b9ffbfbcf726f7231022",
         "detail":1,
         "name":"枣营北里-28号楼",
         "address":"麦子店枣营北里国际青年中心内麦子店外文图书馆附近",
         "street_id":"dda2b9ffbfbcf726f7231022"
      },
      {
         "location":{
            "lat":39.961883,
            "lng":116.481126
         },
         "uid":"bd5046e828dc8042d62ce29d",
         "detail":1,
         "name":"安家楼38号院",
         "address":"北京市朝阳区安家楼38号",
         "street_id":"bd5046e828dc8042d62ce29d"
      },
      {
         "location":{
            "lat":39.971244,
            "lng":116.509425
         },
         "uid":"7172b5a55f8750c1b05c6a28",
         "detail":1,
         "telephone":"(010)84706390",
         "name":"电子城小区",
         "address":"酒仙桥驼房营地区",
         "street_id":"7172b5a55f8750c1b05c6a28"
      },
      {
         "location":{
            "lat":39.962869,
            "lng":116.503563
         },
         "uid":"0ea98d9fb6ef6267afcb66a2",
         "detail":1,
         "name":"南十里居",
         "address":"北京市朝阳区南十里居6",
         "street_id":"0ea98d9fb6ef6267afcb66a2"
      },
      {
         "location":{
            "lat":39.961768,
            "lng":116.502122
         },
         "uid":"817216b915cf315d704b874b",
         "detail":1,
         "telephone":"(010)84503099",
         "name":"东润枫景",
         "address":"酒仙桥南十里居28号院",
         "street_id":"817216b915cf315d704b874b"
      },
      {
         "location":{
            "lat":39.965411,
            "lng":116.503536
         },
         "uid":"680fb703eb7e829c8ab9888c",
         "detail":1,
         "telephone":"(010)58293126",
         "name":"泰华滨河苑",
         "address":"东四环，朝阳公园东门，东风北桥东南十里居41号院",
         "street_id":"680fb703eb7e829c8ab9888c"
      },
      {
         "location":{
            "lat":39.966557,
            "lng":116.506506
         },
         "uid":"3f826ed31c229346d0f49e89",
         "detail":1,
         "name":"亮马嘉园",
         "address":"南十里居35",
         "street_id":"3f826ed31c229346d0f49e89"
      },
      {
         "location":{
            "lat":39.956673,
            "lng":116.499449
         },
         "uid":"bcaebff84c6e6554c8e33c8d",
         "detail":1,
         "name":"东山墅",
         "address":"东四环北路7号",
         "street_id":"bcaebff84c6e6554c8e33c8d"
      },
      {
         "location":{
            "lat":39.9632,
            "lng":116.498654
         },
         "uid":"3722734447cb168bf02d8348",
         "detail":1,
         "name":"怡思苑",
         "address":"朝阳酒仙桥路南十里居15号",
         "street_id":"3722734447cb168bf02d8348"
      },
      {
         "location":{
            "lat":39.965738,
            "lng":116.51003
         },
         "uid":"81d6a5094ae2ce406f20b989",
         "detail":1,
         "name":"驼房营南里(兆维小区西南)",
         "address":"北京市朝阳区驼房营南里11号楼",
         "street_id":"81d6a5094ae2ce406f20b989"
      },
      {
         "location":{
            "lat":39.96481,
            "lng":116.506671
         },
         "uid":"cac5fc7610310df32db96d8f",
         "detail":1,
         "name":"燕沙后小区",
         "address":"朝阳酒仙桥南十里居",
         "street_id":"cac5fc7610310df32db96d8f"
      },
      {
         "location":{
            "lat":39.96392,
            "lng":116.501654
         },
         "uid":"d82d6697efd1dfa5d418b79d",
         "detail":1,
         "name":"东风家园",
         "address":"平房酒仙桥路南十里居北",
         "street_id":"d82d6697efd1dfa5d418b79d"
      },
      {
         "location":{
            "lat":39.952499,
            "lng":116.521083
         },
         "uid":"f0fa1c5c6a0c7d40f7b916a5",
         "detail":1,
         "name":"姚家园西里",
         "address":"北京市朝阳区姚家园路青年路口北300米",
         "street_id":"f0fa1c5c6a0c7d40f7b916a5"
      },
      {
         "location":{
            "lat":39.954951,
            "lng":116.524891
         },
         "uid":"69f45aa8e6d77867d3ff2390",
         "detail":1,
         "name":"姚家园东里-8号院",
         "address":"姚家园东里8号",
         "street_id":"69f45aa8e6d77867d3ff2390"
      },
      {
         "location":{
            "lat":39.952315,
            "lng":116.522086
         },
         "uid":"593850fb2ce7fd5dde1e5288",
         "detail":1,
         "name":"姚家园西里-5号院",
         "address":"姚家园西里5号",
         "street_id":"593850fb2ce7fd5dde1e5288"
      },
      {
         "location":{
            "lat":39.954833,
            "lng":116.524856
         },
         "uid":"14a646cf113b4de7ae045700",
         "detail":1,
         "name":"姚家园东里小区",
         "address":"朝阳区姚家园北一路",
         "street_id":"14a646cf113b4de7ae045700"
      },
      {
         "location":{
            "lat":39.955025,
            "lng":116.519514
         },
         "uid":"3be122e1511fab521ff74d88",
         "detail":1,
         "name":"姚家园西里-2号院",
         "address":"姚家园西里2南门",
         "street_id":"3be122e1511fab521ff74d88"
      },
      {
         "location":{
            "lat":39.95247,
            "lng":116.519575
         },
         "uid":"64ff3be164f9d2bb91114c88",
         "detail":1,
         "name":"姚家园西里3号院",
         "address":"姚家园西里3号西门",
         "street_id":"64ff3be164f9d2bb91114c88"
      },
      {
         "location":{
            "lat":39.954994,
            "lng":116.522132
         },
         "uid":"22e1140729f625b4d4b74e88",
         "detail":1,
         "name":"姚家园西里1号院",
         "address":"姚家园西里1号",
         "street_id":"22e1140729f625b4d4b74e88"
      },
      {
         "location":{
            "lat":39.965493,
            "lng":116.5149
         },
         "uid":"3df4af27f0f9fded4151c0d9",
         "detail":1,
         "name":"梵谷水郡-20号楼",
         "address":"北京市朝阳区梵谷水郡20号楼",
         "street_id":"3df4af27f0f9fded4151c0d9"
      },
      {
         "location":{
            "lat":39.965901,
            "lng":116.51447
         },
         "uid":"763b2fbd219dc9cae507385a",
         "detail":1,
         "name":"梵谷水郡-19号楼",
         "address":"北京市朝阳区梵谷水郡19号楼",
         "street_id":"763b2fbd219dc9cae507385a"
      },
      {
         "location":{
            "lat":39.953077,
            "lng":116.520114
         },
         "uid":"645c37b7ba24f2250969d945",
         "detail":1,
         "name":"姚家园西里3号院-5号楼",
         "address":"姚家园西里3姚家园西里3号院附近",
         "street_id":"645c37b7ba24f2250969d945"
      },
      {
         "location":{
            "lat":39.960757,
            "lng":116.545689
         },
         "uid":"a9e35191492f98cb40e192e4",
         "detail":1,
         "name":"金隅汇景苑",
         "address":"北京市朝阳区平房路",
         "street_id":"a9e35191492f98cb40e192e4"
      },
      {
         "location":{
            "lat":39.970157,
            "lng":116.539317
         },
         "uid":"5edeee1fdf92d472a2d23004",
         "detail":1,
         "name":"常青藤",
         "address":"北京市朝阳区单店西路（东五环七棵树出口向东200米)",
         "telephone":"(010)65419999"
      },
      {
         "location":{
            "lat":39.963681,
            "lng":116.545013
         },
         "uid":"2174b8eb8e7c5a50871541bb",
         "detail":1,
         "telephone":"010-65496557",
         "name":"金隅悦和园",
         "address":"北京市东坝乡单店西村南",
         "street_id":"2174b8eb8e7c5a50871541bb"
      },
      {
         "location":{
            "lat":39.967772,
            "lng":116.539154
         },
         "uid":"d991e116b04c0b551e389489",
         "detail":1,
         "name":"康静里小区",
         "address":"东坝路与平房路交叉口东南150米",
         "street_id":"d991e116b04c0b551e389489"
      },
      {
         "location":{
            "lat":39.967241,
            "lng":116.550114
         },
         "uid":"3d0ca54c453b715d09ccdd62",
         "detail":1,
         "name":"奥林匹克花园",
         "address":"东坝中路",
         "street_id":"3d0ca54c453b715d09ccdd62"
      },
      {
         "location":{
            "lat":39.967121,
            "lng":116.551964
         },
         "uid":"bf23fc24222da5dc94f08cba",
         "detail":1,
         "name":"奥林匹克花园-三期",
         "address":"东坝乡北京奥林匹克花园三期D地块",
         "street_id":"bf23fc24222da5dc94f08cba"
      },
      {
         "location":{
            "lat":39.97221,
            "lng":116.552219
         },
         "uid":"8ab0dfc473a1b416d9eced89",
         "detail":1,
         "name":"东坝家园-B区",
         "address":"北京市朝阳区东坝中路与东坝中街交叉口",
         "street_id":"8ab0dfc473a1b416d9eced89"
      },
      {
         "location":{
            "lat":39.967343,
            "lng":116.55199
         },
         "uid":"5a9c6df51890d5e742d63e98",
         "detail":1,
         "name":"北京奥林匹克花园一期-南区",
         "address":"朝阳区东坝中路",
         "street_id":"5a9c6df51890d5e742d63e98"
      },
      {
         "location":{
            "lat":39.968345,
            "lng":116.548864
         },
         "uid":"9de5a12c6e6a25e8fa42b224",
         "detail":1,
         "name":"北京奥林匹克花园二期-南区",
         "address":"东坝中路",
         "street_id":"9de5a12c6e6a25e8fa42b224"
      },
      {
         "location":{
            "lat":39.964325,
            "lng":116.552095
         },
         "uid":"8d96925c96181345c0f1cf89",
         "detail":1,
         "name":"北京奥林匹克花园三期-南区",
         "address":"北京市朝阳区东坝中路",
         "street_id":"8d96925c96181345c0f1cf89"
      },
      {
         "location":{
            "lat":39.962669,
            "lng":116.555749
         },
         "uid":"3dc9befde456196bbea240db",
         "detail":1,
         "name":"金泰丽富嘉园",
         "address":"朝阳区东坝乡单店村",
         "street_id":"3dc9befde456196bbea240db"
      },
      {
         "location":{
            "lat":39.960815,
            "lng":116.570074
         },
         "uid":"8544be584695c2d9acee7a00",
         "detail":1,
         "name":"金泽家园",
         "address":"北京市朝阳区金泽家园a区",
         "street_id":"8544be584695c2d9acee7a00"
      },
      {
         "location":{
            "lat":39.954908,
            "lng":116.561042
         },
         "uid":"d9ca009c7824c95dab0dd8f0",
         "detail":1,
         "name":"朝新嘉园",
         "address":"东里六区一号",
         "street_id":"d9ca009c7824c95dab0dd8f0"
      },
      {
         "location":{
            "lat":39.966219,
            "lng":116.56407
         },
         "uid":"60d5bca8e9b967d8260bd0f5",
         "detail":1,
         "name":"东泽园",
         "address":"红松路1号院",
         "street_id":"60d5bca8e9b967d8260bd0f5"
      },
      {
         "location":{
            "lat":39.957228,
            "lng":116.557014
         },
         "uid":"fa4ee02436284ec80a5cb395",
         "detail":1,
         "name":"金隅景和园7区",
         "address":"朝阳东坝乡高杨树村",
         "street_id":"fa4ee02436284ec80a5cb395"
      },
      {
         "location":{
            "lat":39.95808,
            "lng":116.565666
         },
         "uid":"744c8dc590fe93de4f6d4637",
         "detail":1,
         "name":"朝新嘉园东里-五区",
         "address":"北京市朝阳区东坝乡",
         "street_id":"744c8dc590fe93de4f6d4637"
      },
      {
         "location":{
            "lat":39.966901,
            "lng":116.565801
         },
         "uid":"f01d740ff8d5b832ca09f044",
         "detail":1,
         "name":"华纺星海家园",
         "address":"北京市朝阳区和敬路59号",
         "street_id":"f01d740ff8d5b832ca09f044"
      },
      {
         "location":{
            "lat":39.957533,
            "lng":116.561405
         },
         "uid":"085e582e4afd1b342b06ce4d",
         "detail":1,
         "name":"金隅景和园",
         "address":"北京市朝阳区东坝乡高杨树村",
         "street_id":"085e582e4afd1b342b06ce4d"
      },
      {
         "location":{
            "lat":39.968856,
            "lng":116.562073
         },
         "uid":"d6512e65229aafa7f942b2c9",
         "detail":1,
         "name":"红松园小区",
         "address":"东坝红松园17号楼",
         "street_id":"d6512e65229aafa7f942b2c9"
      },
      {
         "location":{
            "lat":39.954968,
            "lng":116.56127
         },
         "uid":"d4034eb31835bdf5c136449b",
         "detail":1,
         "telephone":"(010)87306695",
         "name":"朝新嘉园东里-一区",
         "address":"北京市朝阳区东坝驹子房路东",
         "street_id":"d4034eb31835bdf5c136449b"
      },
      {
         "location":{
            "lat":39.973779,
            "lng":116.456918
         },
         "uid":"d0b8923f5e14bae2b4f42f8c",
         "detail":1,
         "name":"茂华UHN国际村",
         "address":"北京市朝阳区曙光西路曙光里对面",
         "street_id":"d0b8923f5e14bae2b4f42f8c"
      },
      {
         "location":{
            "lat":39.974051,
            "lng":116.463318
         },
         "uid":"688e4c8f295fdab214b54b0e",
         "detail":1,
         "telephone":"15810176850",
         "name":"金星园",
         "address":"北京市朝阳区太阳星城金星园小区2号楼",
         "street_id":"688e4c8f295fdab214b54b0e"
      },
      {
         "location":{
            "lat":39.985247,
            "lng":116.471584
         },
         "uid":"925c550f17eafab25b3ac88d",
         "detail":1,
         "name":"方舟苑",
         "address":"北四环东路甲9号",
         "street_id":"925c550f17eafab25b3ac88d"
      },
      {
         "location":{
            "lat":39.987698,
            "lng":116.46436
         },
         "uid":"b3f5f9879589bcebe115f9b2",
         "detail":1,
         "name":"鹿港嘉苑",
         "address":"北京市朝阳区望京西路50号(近望京桥)",
         "street_id":"b3f5f9879589bcebe115f9b2"
      },
      {
         "location":{
            "lat":39.990844,
            "lng":116.472739
         },
         "uid":"af1ae56bb8b68e0b4307c1a7",
         "detail":1,
         "name":"花家地北里",
         "address":"北京市朝阳区花家地街花家地北里1号楼(近望花路)",
         "street_id":"af1ae56bb8b68e0b4307c1a7"
      },
      {
         "location":{
            "lat":39.979333,
            "lng":116.456699
         },
         "uid":"4bb049d9132d96479800508f",
         "detail":1,
         "name":"新纪家园",
         "address":"朝阳区 西坝河太阳宫村7号",
         "street_id":"4bb049d9132d96479800508f"
      },
      {
         "location":{
            "lat":39.978164,
            "lng":116.455592
         },
         "uid":"3da907f3eaa00b53b220a88c",
         "detail":1,
         "name":"万方景轩",
         "address":"太阳宫E区夏家园甲6号",
         "street_id":"3da907f3eaa00b53b220a88c"
      },
      {
         "location":{
            "lat":39.977311,
            "lng":116.461223
         },
         "uid":"de6417dbb2e1746d1fe999d2",
         "detail":1,
         "name":"水星园-1号楼",
         "address":"北京市朝阳区太阳宫水星园",
         "street_id":"de6417dbb2e1746d1fe999d2"
      },
      {
         "location":{
            "lat":39.977117,
            "lng":116.460052
         },
         "uid":"f4a33da9610e4b743010afe3",
         "detail":1,
         "name":"太阳星城水星园",
         "address":"夏家园20号楼",
         "street_id":"f4a33da9610e4b743010afe3"
      },
      {
         "location":{
            "lat":39.984468,
            "lng":116.469696
         },
         "uid":"fd007c5ee918e26ca9f7298d",
         "detail":1,
         "name":"城市月光",
         "address":"北京市朝阳区北四环东路甲9号",
         "street_id":"fd007c5ee918e26ca9f7298d"
      },
      {
         "location":{
            "lat":39.987107,
            "lng":116.492025
         },
         "uid":"f6a998205877ae6095f08caa",
         "detail":1,
         "name":"北京银河湾公寓",
         "address":"万红西街",
         "street_id":"f6a998205877ae6095f08caa"
      },
      {
         "location":{
            "lat":39.984981,
            "lng":116.47788
         },
         "uid":"bcfd70efd1aa2fbdede4a578",
         "detail":1,
         "name":"花家地南里小区",
         "address":"北京市朝阳区花家地南里13号",
         "street_id":"bcfd70efd1aa2fbdede4a578"
      },
      {
         "location":{
            "lat":39.976245,
            "lng":116.48633
         },
         "uid":"8cba4bb002cd9f84ac04578c",
         "detail":1,
         "name":"嘉林花园小区",
         "address":"嘉林路甲1号",
         "street_id":"8cba4bb002cd9f84ac04578c"
      },
      {
         "location":{
            "lat":39.989171,
            "lng":116.475644
         },
         "uid":"e56bf5e39ed4e3450782c26a",
         "detail":1,
         "name":"花家地小区",
         "address":"朝阳北四环东路花家地街",
         "street_id":"e56bf5e39ed4e3450782c26a"
      },
      {
         "location":{
            "lat":39.97553,
            "lng":116.490589
         },
         "uid":"465018e6333f5136eaf85327",
         "detail":1,
         "telephone":"010-84578920",
         "name":"丽都水岸",
         "address":"北京市芳园南里",
         "street_id":"465018e6333f5136eaf85327"
      },
      {
         "location":{
            "lat":39.97606,
            "lng":116.491772
         },
         "uid":"e47eb47d027831254afc8d23",
         "detail":1,
         "name":"上东8号",
         "address":"朝阳区东北四环芳园南里9号院6号楼",
         "street_id":"e47eb47d027831254afc8d23"
      },
      {
         "location":{
            "lat":39.978836,
            "lng":116.493532
         },
         "uid":"d5f93c0e67d6a85cecdfca8d",
         "detail":1,
         "name":"芳园里社区",
         "address":"将台路2号",
         "street_id":"d5f93c0e67d6a85cecdfca8d"
      },
      {
         "location":{
            "lat":39.985967,
            "lng":116.4903
         },
         "uid":"c8e8f633b279766caa0dd88d",
         "detail":1,
         "name":"高家园社区",
         "address":"北京市朝阳区酒仙桥街道将台路高家园社区",
         "street_id":"c8e8f633b279766caa0dd88d"
      },
      {
         "location":{
            "lat":39.977309,
            "lng":116.488785
         },
         "uid":"dbf4d6ee41374b2a6ea3cc8d",
         "detail":1,
         "telephone":"(010)84562998",
         "name":"风景线",
         "address":"朝阳将台西路芳园里46-47号楼",
         "street_id":"dbf4d6ee41374b2a6ea3cc8d"
      },
      {
         "location":{
            "lat":39.981266,
            "lng":116.489974
         },
         "uid":"8fa14fc3e009c86ef6eafc8d",
         "detail":1,
         "name":"和乔丽晶",
         "address":"北京市朝阳区芳园西路1号",
         "street_id":"8fa14fc3e009c86ef6eafc8d"
      },
      {
         "location":{
            "lat":39.98557,
            "lng":116.51216
         },
         "uid":"6f5c7a6687c619d62bd7ab57",
         "detail":1,
         "name":"丽都壹号",
         "address":"将台路与驼房营路交叉口东南角",
         "street_id":"6f5c7a6687c619d62bd7ab57"
      },
      {
         "location":{
            "lat":39.982525,
            "lng":116.512282
         },
         "uid":"ad445baab4c977e3a2a9348b",
         "detail":1,
         "name":"将府家园小区",
         "address":"北京朝阳区东八间房村",
         "street_id":"ad445baab4c977e3a2a9348b"
      },
      {
         "location":{
            "lat":39.979193,
            "lng":116.512598
         },
         "uid":"be54cde9eedff25879f79689",
         "detail":1,
         "name":"卡布奇诺小区",
         "address":"北京市朝阳区将府家园北里",
         "street_id":"be54cde9eedff25879f79689"
      },
      {
         "location":{
            "lat":39.977136,
            "lng":116.511897
         },
         "uid":"b9ee746219d49623213bf27f",
         "detail":1,
         "telephone":"(010)84576060",
         "name":"滨河1号",
         "address":"北京市朝阳区将府家园北里202号楼",
         "street_id":"b9ee746219d49623213bf27f"
      },
      {
         "location":{
            "lat":39.991706,
            "lng":116.4949
         },
         "uid":"43a547fa8b2f7b60b21e36ab",
         "detail":1,
         "name":"大山子北里",
         "address":"北京市朝阳区酒仙桥路7号",
         "street_id":"43a547fa8b2f7b60b21e36ab"
      },
      {
         "location":{
            "lat":39.972876,
            "lng":116.510223
         },
         "uid":"cb4fd14646d9ca589c9d68aa",
         "detail":1,
         "name":"驼房营",
         "address":"将台路",
         "street_id":"cb4fd14646d9ca589c9d68aa"
      },
      {
         "location":{
            "lat":39.990636,
            "lng":116.497217
         },
         "uid":"1deeac648da36c3bb2077d02",
         "detail":1,
         "telephone":"(010)64351266",
         "name":"宏源公寓",
         "address":"朝阳区酒仙桥路4号，紧邻首都机场高速公路，大山子桥东南角",
         "street_id":"1deeac648da36c3bb2077d02"
      },
      {
         "location":{
            "lat":39.982005,
            "lng":116.503475
         },
         "uid":"d0d5e08f2f151f8cb11e3694",
         "detail":1,
         "name":"国投创意产业园-北楼",
         "address":"酒仙桥中路18号国投创意信息产业园",
         "street_id":"d0d5e08f2f151f8cb11e3694"
      },
      {
         "location":{
            "lat":39.972446,
            "lng":116.50613
         },
         "uid":"dbf1125a8e600229f90cad69",
         "detail":1,
         "name":"酒仙桥五街坊-1号楼",
         "address":"酒仙桥五街坊1",
         "street_id":"dbf1125a8e600229f90cad69"
      },
      {
         "location":{
            "lat":39.98692,
            "lng":116.502111
         },
         "uid":"f4a33da924e60e093110af8c",
         "detail":1,
         "name":"万红里-甲31号院",
         "address":"万红里甲31号1",
         "street_id":"f4a33da924e60e093110af8c"
      },
      {
         "location":{
            "lat":39.973906,
            "lng":116.549729
         },
         "uid":"af1ae56bc1e5f70b4307c1f6",
         "detail":1,
         "name":"东坝家园",
         "address":"北京市朝阳区东坝中街",
         "street_id":"af1ae56bc1e5f70b4307c1f6"
      },
      {
         "location":{
            "lat":39.974788,
            "lng":116.540461
         },
         "uid":"059a72d7434783297bf79606",
         "detail":1,
         "name":"坝鑫家园",
         "address":"北京市朝阳区东坝路",
         "street_id":"059a72d7434783297bf79606"
      },
      {
         "location":{
            "lat":39.973008,
            "lng":116.547951
         },
         "uid":"e9bced73e8602c37465726fc",
         "detail":1,
         "name":"东坝家园-A区",
         "address":"北京市朝阳区东坝家园",
         "street_id":"e9bced73e8602c37465726fc"
      },
      {
         "location":{
            "lat":39.974639,
            "lng":116.552041
         },
         "uid":"218ee07986f725bab75f1e6d",
         "detail":1,
         "name":"北京好漾",
         "address":"北京市朝阳区东坝家园b座",
         "street_id":"218ee07986f725bab75f1e6d"
      },
      {
         "location":{
            "lat":39.975816,
            "lng":116.538535
         },
         "uid":"15cafc4c82588ce104026f24",
         "detail":1,
         "name":"恒大江湾",
         "address":"朝阳区东坝乡东坝路与东坝中街交汇口附近",
         "street_id":"15cafc4c82588ce104026f24"
      },
      {
         "location":{
            "lat":39.975088,
            "lng":116.548851
         },
         "uid":"51c40868f6c7ddd0badf8f4f",
         "detail":1,
         "name":"东坝家园-203号楼",
         "address":"北京市朝阳区东坝家园203号楼",
         "street_id":"51c40868f6c7ddd0badf8f4f"
      },
      {
         "location":{
            "lat":39.97614,
            "lng":116.546549
         },
         "uid":"e04601f33725f58786420e4c",
         "detail":1,
         "name":"东坝家园-235号楼",
         "address":"北京市朝阳区东坝家园235号楼",
         "street_id":"e04601f33725f58786420e4c"
      },
      {
         "location":{
            "lat":39.975821,
            "lng":116.547529
         },
         "uid":"fa93f63cf85f6da7fda778aa",
         "detail":1,
         "name":"东坝家园-233号楼",
         "address":"北京市朝阳区东坝家园233号楼",
         "street_id":"fa93f63cf85f6da7fda778aa"
      },
      {
         "location":{
            "lat":39.974245,
            "lng":116.546703
         },
         "uid":"9edadcc87040f1e65c0d02e9",
         "detail":1,
         "name":"东坝家园-228号楼",
         "address":"北京市朝阳区东坝家园228号楼",
         "street_id":"9edadcc87040f1e65c0d02e9"
      },
      {
         "location":{
            "lat":39.972688,
            "lng":116.5475
         },
         "uid":"61530793ab8da25eae080f9b",
         "detail":1,
         "name":"东坝家园-217号楼",
         "address":"北京市朝阳区东坝家园217号楼",
         "street_id":"61530793ab8da25eae080f9b"
      },
      {
         "location":{
            "lat":39.972428,
            "lng":116.554893
         },
         "uid":"889ce76ca7d7f8c4df1e52d6",
         "detail":1,
         "name":"利锦府",
         "address":"北京市朝阳区东坝中街红松园北里18号",
         "street_id":"889ce76ca7d7f8c4df1e52d6"
      },
      {
         "location":{
            "lat":40.001455,
            "lng":116.461821
         },
         "uid":"2848ffd69417880f49cc4a8c",
         "detail":1,
         "telephone":"(010)65057878",
         "name":"季景沁园",
         "address":"北京市朝阳区南湖西园甲207号",
         "street_id":"2848ffd69417880f49cc4a8c"
      },
      {
         "location":{
            "lat":39.99786,
            "lng":116.473121
         },
         "uid":"bbcef6942c2ce3208d772731",
         "detail":1,
         "name":"大西洋新城小区",
         "address":"北京市朝阳区广顺北大街33号",
         "street_id":"bbcef6942c2ce3208d772731"
      },
      {
         "location":{
            "lat":40.008837,
            "lng":116.471858
         },
         "uid":"4fc3161afbcbcca93b13fd8b",
         "detail":1,
         "name":"南湖东园-一区",
         "address":"北京市朝阳区河荫西路",
         "street_id":"4fc3161afbcbcca93b13fd8b"
      },
      {
         "location":{
            "lat":39.993557,
            "lng":116.467614
         },
         "uid":"0adce3e2389c526281a00c9c",
         "detail":1,
         "name":"花家地西里小区",
         "address":"花家地西里301",
         "street_id":"0adce3e2389c526281a00c9c"
      },
      {
         "location":{
            "lat":40.004387,
            "lng":116.463106
         },
         "uid":"1cea15a9a095d3bb07fef51a",
         "detail":1,
         "name":"银领国际",
         "address":"望京南湖西园银领国际公寓121楼404",
         "street_id":"1cea15a9a095d3bb07fef51a"
      },
      {
         "location":{
            "lat":40.005481,
            "lng":116.472028
         },
         "uid":"e144e3ac38c82671f50e77dc",
         "detail":1,
         "name":"南湖东园-二区",
         "address":"朝阳北四环望京南湖北路南湖派出所路对面",
         "street_id":"e144e3ac38c82671f50e77dc"
      },
      {
         "location":{
            "lat":40.006965,
            "lng":116.462739
         },
         "uid":"3bae977cf37bc83de6e965d9",
         "detail":1,
         "name":"世安家园",
         "address":"北京市朝阳区望京西站东500米(银领国际北侧)",
         "street_id":"3bae977cf37bc83de6e965d9"
      },
      {
         "location":{
            "lat":40.004398,
            "lng":116.466102
         },
         "uid":"532c723d5742bfbbc42ba114",
         "detail":1,
         "name":"南湖中园小区",
         "address":"望京西路308号附近",
         "street_id":"532c723d5742bfbbc42ba114"
      },
      {
         "location":{
            "lat":40.002749,
            "lng":116.472663
         },
         "uid":"ffd6d40371a6738f16b54b8f",
         "detail":1,
         "telephone":"010-64753085",
         "name":"夏都家园",
         "address":"北京市朝阳区广顺北大街31号院3号",
         "street_id":"ffd6d40371a6738f16b54b8f"
      },
      {
         "location":{
            "lat":39.996931,
            "lng":116.468632
         },
         "uid":"89fd4ea3afe59947e4e9658c",
         "detail":1,
         "name":"金隅丽港城",
         "address":"南湖南路15号",
         "street_id":"89fd4ea3afe59947e4e9658c"
      },
      {
         "location":{
            "lat":40.004553,
            "lng":116.480221
         },
         "uid":"e30a5cff676994a33f9a5edb",
         "detail":1,
         "name":"望京西园(三区)",
         "address":"望京西路与广顺北大街交界处以西",
         "street_id":"e30a5cff676994a33f9a5edb"
      },
      {
         "location":{
            "lat":40.002902,
            "lng":116.492031
         },
         "uid":"ec8ce305f9c08be86fc02c72",
         "detail":1,
         "name":"融科橄榄城",
         "address":"北京市朝阳区阜通东大街与阜安西路交叉口",
         "street_id":"ec8ce305f9c08be86fc02c72"
      },
      {
         "location":{
            "lat":40.001315,
            "lng":116.492955
         },
         "uid":"b9e5d0b8d125dac280a12e81",
         "detail":1,
         "name":"国风北京",
         "address":"北京市朝阳区阜安东路和阜通东大街交叉口",
         "street_id":"b9e5d0b8d125dac280a12e81"
      },
      {
         "location":{
            "lat":40.009265,
            "lng":116.486778
         },
         "uid":"56f2f6963ddbf1800ba8d48b",
         "detail":1,
         "name":"慧谷阳光",
         "address":"望京东园207",
         "street_id":"56f2f6963ddbf1800ba8d48b"
      },
      {
         "location":{
            "lat":40.012072,
            "lng":116.476346
         },
         "uid":"81d6a5090b408f3c6e20b927",
         "detail":1,
         "name":"望京花园-西区",
         "address":"北京市朝阳区广顺北大街21号",
         "street_id":"81d6a5090b408f3c6e20b927"
      },
      {
         "location":{
            "lat":39.998104,
            "lng":116.493477
         },
         "uid":"4af22ed1091625684d5547ea",
         "detail":1,
         "telephone":"010-64718801",
         "name":"国风上观",
         "address":"望京东园624",
         "street_id":"4af22ed1091625684d5547ea"
      },
      {
         "location":{
            "lat":40.00093,
            "lng":116.481732
         },
         "uid":"b703e96b4534b0fa8e1a898d",
         "detail":1,
         "name":"华鼎世家",
         "address":"望京阜荣街",
         "street_id":"b703e96b4534b0fa8e1a898d"
      },
      {
         "location":{
            "lat":39.994592,
            "lng":116.490198
         },
         "uid":"d991e116920365281f389445",
         "detail":1,
         "name":"朝庭公寓",
         "address":"北京市朝阳区阜荣街8号",
         "street_id":"d991e116920365281f389445"
      },
      {
         "location":{
            "lat":40.008593,
            "lng":116.490745
         },
         "uid":"509cb38d51ea624709b93ae4",
         "detail":1,
         "telephone":"(010)84616666",
         "name":"远洋万和公馆",
         "address":"朝阳阜通东大街（保利万和电影院向北100米）",
         "street_id":"509cb38d51ea624709b93ae4"
      },
      {
         "location":{
            "lat":40.006516,
            "lng":116.487093
         },
         "uid":"21a3231804b5d5df734b87ac",
         "detail":1,
         "name":"宝星园",
         "address":"朝阳望京A3区,望京新城的东北200米",
         "street_id":"21a3231804b5d5df734b87ac"
      },
      {
         "location":{
            "lat":39.995331,
            "lng":116.508768
         },
         "uid":"b0ee3e0a750e86caaeb22a0e",
         "detail":1,
         "name":"北窑地小区",
         "address":"北京市朝阳区酒仙桥北路5号",
         "street_id":"b0ee3e0a750e86caaeb22a0e"
      },
      {
         "location":{
            "lat":40.00352,
            "lng":116.498579
         },
         "uid":"4b42b6ff153014438505bfea",
         "detail":1,
         "name":"保利·中央公园-赏林苑",
         "address":"北京市朝阳区",
         "street_id":"4b42b6ff153014438505bfea"
      },
      {
         "location":{
            "lat":39.994815,
            "lng":116.497432
         },
         "uid":"e458c6a7b5b63967c3f1cf7f",
         "detail":1,
         "name":"荧屏里小区",
         "address":"北京市朝阳区酒仙桥北路9号",
         "street_id":"e458c6a7b5b63967c3f1cf7f"
      },
      {
         "location":{
            "lat":40.003821,
            "lng":116.495722
         },
         "uid":"536934abf3ca09a914b54b20",
         "detail":1,
         "name":"保利·中央公园嬉林园",
         "address":"宏泰东街宝利·中央公园附近",
         "street_id":"536934abf3ca09a914b54b20"
      },
      {
         "location":{
            "lat":40.002776,
            "lng":116.496526
         },
         "uid":"297bc09cb5c010019a68b4a7",
         "detail":1,
         "name":"保利·中央公园艺林园",
         "address":"阜安路与宏泰东街交汇处",
         "street_id":"297bc09cb5c010019a68b4a7"
      },
      {
         "location":{
            "lat":39.995504,
            "lng":116.512249
         },
         "uid":"8bd31d71ccd17d3f704b87cb",
         "detail":1,
         "name":"北窑地河北一号院",
         "address":"酒仙桥北路",
         "street_id":"e15b48110cb3e024d12dd628"
      },
      {
         "location":{
            "lat":39.995108,
            "lng":116.497415
         },
         "uid":"5e443327612145727bf79601",
         "detail":1,
         "name":"荧屏里小区-2号楼",
         "address":"北京市朝阳区荧屏里小区2号楼",
         "street_id":"5e443327612145727bf79601"
      },
      {
         "location":{
            "lat":39.995813,
            "lng":116.509706
         },
         "uid":"077ed5a45645515f6ca3cc5d",
         "detail":1,
         "name":"北窑地-11号楼",
         "address":"酒仙桥北路5号京物大厦附近",
         "street_id":"077ed5a45645515f6ca3cc5d"
      },
      {
         "location":{
            "lat":39.995567,
            "lng":116.497979
         },
         "uid":"f8b9a6d61b159f060a5cb36d",
         "detail":1,
         "name":"荧屏里小区-1号楼",
         "address":"北京市朝阳区荧屏里小区1号楼",
         "street_id":"f8b9a6d61b159f060a5cb36d"
      },
      {
         "location":{
            "lat":39.996521,
            "lng":116.509648
         },
         "uid":"2b6bb73a29f20ece230220ae",
         "detail":1,
         "name":"北窑地-13号楼",
         "address":"北京市朝阳区北窑地13号楼",
         "street_id":"2b6bb73a29f20ece230220ae"
      },
      {
         "location":{
            "lat":39.995476,
            "lng":116.517677
         },
         "uid":"2ee21bd76bacdccb44572649",
         "detail":1,
         "name":"中国铁道科学院东郊分院1号楼",
         "address":"北京市朝阳区",
         "street_id":"2ee21bd76bacdccb44572649"
      },
      {
         "location":{
            "lat":39.996162,
            "lng":116.534793
         },
         "uid":"6ed3083ad7cc7bb62a3a9fae",
         "detail":1,
         "telephone":"010-6436211",
         "name":"将府庄园",
         "address":"北京市朝阳区铁路大环内庄园北路",
         "street_id":"6ed3083ad7cc7bb62a3a9fae"
      },
      {
         "location":{
            "lat":40.005662,
            "lng":116.545183
         },
         "uid":"a868773c4cc5a2ed2cb9085c",
         "detail":1,
         "name":"黑桥艺术区F区",
         "address":"北京市朝阳区黑桥艺术区F区",
         "street_id":"a868773c4cc5a2ed2cb9085c"
      },
      {
         "location":{
            "lat":40.003504,
            "lng":116.549265
         },
         "uid":"5cafe872bced15372dfaa76b",
         "detail":1,
         "name":"黑桥艺术村B区",
         "address":"北京市朝阳区黑桥艺术村B区",
         "street_id":"5cafe872bced15372dfaa76b"
      },
      {
         "location":{
            "lat":40.003433,
            "lng":116.548497
         },
         "uid":"69135fd1ef66252996f08cdf",
         "detail":1,
         "name":"黑桥艺术村C区",
         "address":"北京市朝阳区黑桥艺术村C区",
         "street_id":"69135fd1ef66252996f08cdf"
      },
      {
         "location":{
            "lat":40.003378,
            "lng":116.547851
         },
         "uid":"5689d97cf57177e6a6da3963",
         "detail":1,
         "name":"黑桥艺术村D区",
         "address":"北京市朝阳区黑桥艺术村D区",
         "street_id":"5689d97cf57177e6a6da3963"
      },
      {
         "location":{
            "lat":40.012545,
            "lng":116.466926
         },
         "uid":"5e53af1a5f72335f4051c08b",
         "detail":1,
         "name":"东湖湾",
         "address":"北京市朝阳区利泽西街",
         "street_id":"5e53af1a5f72335f4051c08b"
      },
      {
         "location":{
            "lat":40.018615,
            "lng":116.467347
         },
         "uid":"882533e3787cdf3e9d95dee5",
         "detail":1,
         "telephone":"15010251101",
         "name":"北京澳洲康都",
         "address":"北京市朝阳区望京北路39号院1号",
         "street_id":"882533e3787cdf3e9d95dee5"
      },
      {
         "location":{
            "lat":40.028411,
            "lng":116.470589
         },
         "uid":"09185c5646cf8a5df019378b",
         "detail":1,
         "name":"北纬40度",
         "address":"来广营西路7号",
         "street_id":"09185c5646cf8a5df019378b"
      },
      {
         "location":{
            "lat":40.015678,
            "lng":116.471703
         },
         "uid":"37d60a46c76a3e791e1d1157",
         "detail":1,
         "telephone":"(010)64786999",
         "name":"上京新航线",
         "address":"望京广顺北大街利泽西园310号(近叶青大厦)",
         "street_id":"37d60a46c76a3e791e1d1157"
      },
      {
         "location":{
            "lat":40.018639,
            "lng":116.471584
         },
         "uid":"61f634f66da919786a49f38b",
         "detail":1,
         "name":"利泽西园",
         "address":"朝阳区望京北路",
         "street_id":"61f634f66da919786a49f38b"
      },
      {
         "location":{
            "lat":40.015421,
            "lng":116.467304
         },
         "uid":"669775d0a200ee5bfc0eb08b",
         "detail":1,
         "name":"望馨花园",
         "address":"利泽西园208",
         "street_id":"669775d0a200ee5bfc0eb08b"
      },
      {
         "location":{
            "lat":40.025634,
            "lng":116.469725
         },
         "uid":"c4dd534954fe49589d9d68e3",
         "detail":1,
         "name":"臻园",
         "address":"北京市朝阳望京广顺北大街与来广营西路交汇处西侧",
         "street_id":"c4dd534954fe49589d9d68e3"
      },
      {
         "location":{
            "lat":40.025041,
            "lng":116.467223
         },
         "uid":"9b8c8164173785afc909f0e8",
         "detail":1,
         "name":"望京金茂府",
         "address":"来广营西路4号院",
         "street_id":"9b8c8164173785afc909f0e8"
      },
      {
         "location":{
            "lat":40.018758,
            "lng":116.472445
         },
         "uid":"e8cfce30d2904bf3c8213db1",
         "detail":1,
         "name":"利泽西园-一区",
         "address":"北京市朝阳区望京西路与广顺北大街路口以西约100米路南",
         "street_id":"e8cfce30d2904bf3c8213db1"
      },
      {
         "location":{
            "lat":40.012802,
            "lng":116.470596
         },
         "uid":"b9f5af660c83dadc2fb17e27",
         "detail":1,
         "telephone":"(010)84719966",
         "name":"东湖湾-东区",
         "address":"北京市朝阳区利泽西街西6号",
         "street_id":"b9f5af660c83dadc2fb17e27"
      },
      {
         "location":{
            "lat":40.013217,
            "lng":116.482455
         },
         "uid":"cdef4edf80a5284e29d7ab8b",
         "detail":1,
         "telephone":"(010)64728488",
         "name":"望京花园东区",
         "address":"望京花园202",
         "street_id":"cdef4edf80a5284e29d7ab8b"
      },
      {
         "location":{
            "lat":40.013047,
            "lng":116.487212
         },
         "uid":"1245481cce6390f179dbd258",
         "detail":1,
         "name":"Class果岭里小区",
         "address":"朝阳区望京新兴产业开发区广泽路6号",
         "street_id":"1245481cce6390f179dbd258"
      },
      {
         "location":{
            "lat":40.015769,
            "lng":116.486886
         },
         "uid":"e6ee2fd277b21d482a11d18b",
         "detail":1,
         "telephone":"13552726375",
         "name":"慧谷根园",
         "address":"广泽路2号，望京新兴产业区",
         "street_id":"e6ee2fd277b21d482a11d18b"
      },
      {
         "location":{
            "lat":40.018825,
            "lng":116.486022
         },
         "uid":"e7ed4f7e1b1928f0b35c6a2f",
         "detail":1,
         "telephone":"(010)57270920",
         "name":"博泰嘉华大厦",
         "address":"北京市朝阳区望京利泽东园308号望京创业科技园内",
         "street_id":"e7ed4f7e1b1928f0b35c6a2f"
      },
      {
         "location":{
            "lat":40.016522,
            "lng":116.479274
         },
         "uid":"a70203c3f9f8de49e6073805",
         "detail":1,
         "name":"利泽中园",
         "address":"北京市朝阳区望京北路",
         "street_id":"a70203c3f9f8de49e6073805"
      },
      {
         "location":{
            "lat":40.01258,
            "lng":116.475888
         },
         "uid":"b587d73240c65fd8cafa5f99",
         "detail":1,
         "name":"望京花园-113号楼",
         "address":"溪阳中路望京花园(西区南门)附近",
         "street_id":"b587d73240c65fd8cafa5f99"
      },
      {
         "location":{
            "lat":40.013692,
            "lng":116.478948
         },
         "uid":"5b1155b1f78d7170b5f42fae",
         "detail":1,
         "name":"望京花园-131号楼",
         "address":"北京市朝阳区望京花园131号",
         "street_id":"5b1155b1f78d7170b5f42fae"
      },
      {
         "location":{
            "lat":40.013946,
            "lng":116.475384
         },
         "uid":"ec0355cafd12932e03294ff7",
         "detail":1,
         "name":"望京花园-102号楼",
         "address":"北京市朝阳区望京花园102号",
         "street_id":"ec0355cafd12932e03294ff7"
      },
      {
         "location":{
            "lat":40.014712,
            "lng":116.475744
         },
         "uid":"0543733c6b68ca226140a9e3",
         "detail":1,
         "name":"华彩国际公寓-7号楼",
         "address":"北京市朝阳区华彩国际公寓7号楼",
         "street_id":"0543733c6b68ca226140a9e3"
      },
      {
         "location":{
            "lat":40.019069,
            "lng":116.480867
         },
         "uid":"2279bdb8f47f4675eb1e9774",
         "detail":1,
         "name":"地汇华商国际公寓",
         "address":"望京中关村科技园区电子城西区",
         "street_id":"2279bdb8f47f4675eb1e9774"
      },
      {
         "uid":"2335a2dc1a803e741c3894bc",
         "detail":1,
         "location":{
            "lat":40.018481,
            "lng":116.504964
         },
         "name":"绿地家园",
         "address":"东辛店中街138-139号"
      },
      {
         "location":{
            "lat":40.029262,
            "lng":116.51305
         },
         "uid":"86107827d7cb5d59ed74f896",
         "detail":1,
         "name":"马泉营南里-14号楼",
         "address":"北京市朝阳区马南里小区14号楼",
         "street_id":"86107827d7cb5d59ed74f896"
      },
      {
         "location":{
            "lat":40.028378,
            "lng":116.513333
         },
         "uid":"b27a7206e414bb8932870a24",
         "detail":1,
         "name":"马南里小区-16号楼",
         "address":"北京市朝阳区马南里小区16号楼",
         "street_id":"b27a7206e414bb8932870a24"
      },
      {
         "location":{
            "lat":40.027374,
            "lng":116.513338
         },
         "uid":"f2c585ea25f6141a223bf2e4",
         "detail":1,
         "name":"马南里小区-18号楼",
         "address":"北京市朝阳区马南里小区18号楼",
         "street_id":"f2c585ea25f6141a223bf2e4"
      },
      {
         "location":{
            "lat":40.027923,
            "lng":116.513285
         },
         "uid":"5a111ec5399d652db23c8130",
         "detail":1,
         "name":"马南里小区-17号楼",
         "address":"北京市朝阳区马南里小区17号楼",
         "street_id":"5a111ec5399d652db23c8130"
      },
      {
         "location":{
            "lat":40.028745,
            "lng":116.513405
         },
         "uid":"998a738b087e9b392afc4853",
         "detail":1,
         "name":"马南里小区-15号楼",
         "address":"北京市朝阳区马南里小区15号楼",
         "street_id":"998a738b087e9b392afc4853"
      },
      {
         "location":{
            "lat":40.029656,
            "lng":116.513672
         },
         "uid":"aa40108b2e159668c5effb9d",
         "detail":1,
         "name":"马南里小区-西门",
         "address":"北京市朝阳区",
         "street_id":"aa40108b2e159668c5effb9d"
      },
      {
         "location":{
            "lat":40.029472,
            "lng":116.513476
         },
         "uid":"cfaf7121ba6809dfe5e965cf",
         "detail":1,
         "name":"马泉营南里小区-东门",
         "address":"北京市朝阳区",
         "street_id":"cfaf7121ba6809dfe5e965cf"
      },
      {
         "location":{
            "lat":40.029453,
            "lng":116.513533
         },
         "uid":"896bbf1228b98faf5fd4fe7c",
         "detail":1,
         "name":"马南里小区-地上停车场",
         "address":"朝阳区崔各庄",
         "street_id":"896bbf1228b98faf5fd4fe7c"
      },
      {
         "location":{
            "lat":40.029526,
            "lng":116.513692
         },
         "uid":"ea4a3dc9586ca9504e554709",
         "detail":1,
         "name":"马南里小区-停车场",
         "address":"来广营东路8号马南里小区",
         "street_id":"ea4a3dc9586ca9504e554709"
      },
      {
         "location":{
            "lat":40.015645,
            "lng":116.533043
         },
         "uid":"5f881cfb1ec3c656336212cb",
         "detail":1,
         "name":"京旺家园",
         "address":"朝阳区崔各庄乡京旺家园3区3号楼底商",
         "street_id":"5f881cfb1ec3c656336212cb"
      },
      {
         "location":{
            "lat":40.028672,
            "lng":116.517074
         },
         "uid":"96b672aad934d974cf04efb8",
         "detail":1,
         "telephone":"(010)64361491",
         "name":"马南里小区",
         "address":"北京市朝阳区顺义中央别墅区马南里",
         "street_id":"96b672aad934d974cf04efb8"
      },
      {
         "location":{
            "lat":40.01543,
            "lng":116.533218
         },
         "uid":"085b67bc69ed4f151d58006d",
         "detail":1,
         "name":"京旺家园小区(二区)",
         "address":"崔各庄乡北皋村",
         "street_id":"085b67bc69ed4f151d58006d"
      },
      {
         "location":{
            "lat":40.016085,
            "lng":116.533375
         },
         "uid":"a12a248d69e1aafaf7eafca0",
         "detail":1,
         "name":"京旺家园-三区",
         "address":"崔各庄",
         "street_id":"a12a248d69e1aafaf7eafca0"
      },
      {
         "location":{
            "lat":40.019173,
            "lng":116.532524
         },
         "uid":"64706b13b1258e969c09f7cd",
         "detail":1,
         "name":"京旺家园六区",
         "address":"北京市朝阳区",
         "street_id":"64706b13b1258e969c09f7cd"
      },
      {
         "location":{
            "lat":40.026179,
            "lng":116.529161
         },
         "uid":"cde9e2c73fff43b4e91e978a",
         "detail":1,
         "name":"太利花园",
         "address":"朝阳区和平路一号",
         "street_id":"cde9e2c73fff43b4e91e978a"
      },
      {
         "location":{
            "lat":40.031639,
            "lng":116.516885
         },
         "uid":"85a1f32d79f5607732870a61",
         "detail":1,
         "name":"观塘东路9号",
         "address":"北京市朝阳区观唐路9号",
         "street_id":"85a1f32d79f5607732870a61"
      },
      {
         "location":{
            "lat":40.027646,
            "lng":116.516474
         },
         "uid":"f1caef494febe5349c09f7a5",
         "detail":1,
         "name":"马南里小区-11号楼",
         "address":"北京市朝阳区马南里小区11号楼",
         "street_id":"f1caef494febe5349c09f7a5"
      },
      {
         "location":{
            "lat":40.03109,
            "lng":116.519794
         },
         "uid":"7f8871e4815acc4ea10464e0",
         "detail":1,
         "name":"长岛澜桥-47号楼",
         "address":"北京市朝阳区长岛澜桥47号楼",
         "street_id":"7f8871e4815acc4ea10464e0"
      },
      {
         "location":{
            "lat":40.029419,
            "lng":116.516856
         },
         "uid":"0e31070046ba34d9f942b2dd",
         "detail":1,
         "name":"马南里小区-4号楼",
         "address":"北京市朝阳区马南里小区4号楼",
         "street_id":"0e31070046ba34d9f942b2dd"
      },
      {
         "location":{
            "lat":40.020561,
            "lng":116.535437
         },
         "uid":"f3c4c856416f5ef1ae0457b9",
         "detail":1,
         "name":"京旺家园七区",
         "address":"北京市朝阳区",
         "street_id":"f3c4c856416f5ef1ae0457b9"
      },
      {
         "location":{
            "lat":40.016268,
            "lng":116.537921
         },
         "uid":"ebdd14a6309f301aaecb661a",
         "detail":1,
         "name":"京旺家园-四区",
         "address":"和平公社路附近",
         "street_id":"ebdd14a6309f301aaecb661a"
      },
      {
         "location":{
            "lat":40.020167,
            "lng":116.535288
         },
         "uid":"aca56679ef505678a8175a9f",
         "detail":1,
         "name":"京旺家园五区",
         "address":"北京市朝阳区",
         "street_id":"aca56679ef505678a8175a9f"
      },
      {
         "location":{
            "lat":40.015926,
            "lng":116.537884
         },
         "uid":"383981786b1984a423f017cb",
         "detail":1,
         "name":"京旺家园-一区",
         "address":"北京市朝阳区南皋路",
         "street_id":"383981786b1984a423f017cb"
      },
      {
         "uid":"ac6c381d1ef8ade157bffff8",
         "detail":1,
         "location":{
            "lat":40.019003,
            "lng":116.553701
         },
         "name":"蟹岛员工生活区",
         "address":"北京市朝阳区蟹岛西路东150米"
      },
      {
         "location":{
            "lat":40.014786,
            "lng":116.535906
         },
         "uid":"320bdc5f1709147952e5c5c6",
         "detail":1,
         "name":"京旺家园小区二区-东门",
         "address":"京旺家园二区出口对面附近",
         "street_id":"320bdc5f1709147952e5c5c6"
      },
      {
         "uid":"84648d64fef815a3f603b841",
         "detail":0,
         "location":{
            "lat":40.028616,
            "lng":116.546884
         },
         "name":"康营小区",
         "address":"康营小区-孙河通勤班车"
      },
      {
         "location":{
            "lat":40.015197,
            "lng":116.56632
         },
         "uid":"1840d4e0115f610e9d95def1",
         "detail":1,
         "name":"金盏嘉园",
         "address":"北京市朝阳区金盏乡长店大街",
         "street_id":"1840d4e0115f610e9d95def1"
      },
      {
         "location":{
            "lat":40.014822,
            "lng":116.561135
         },
         "uid":"640ec0513db79b728bf15deb",
         "detail":1,
         "name":"金盏嘉园(C区)",
         "address":"北京市朝阳区东苇路",
         "street_id":"640ec0513db79b728bf15deb"
      },
      {
         "location":{
            "lat":40.015364,
            "lng":116.563622
         },
         "uid":"f2d9d9405739ecb92d473373",
         "detail":1,
         "name":"金盏嘉园-B区",
         "address":"北京市朝阳区金港南路附近",
         "street_id":"f2d9d9405739ecb92d473373"
      },
      {
         "location":{
            "lat":40.016506,
            "lng":116.566732
         },
         "uid":"0a250fa39235302f02294f49",
         "detail":1,
         "name":"金盏嘉园-A区",
         "address":"东苇路金盏嘉园附近",
         "street_id":"0a250fa39235302f02294f49"
      },
      {
         "location":{
            "lat":40.014652,
            "lng":116.558244
         },
         "uid":"ecbc1d928f077ac09f09f7cb",
         "detail":1,
         "name":"金盏嘉园d区",
         "address":"北京市朝阳区",
         "street_id":"ecbc1d928f077ac09f09f7cb"
      },
      {
         "location":{
            "lat":40.013093,
            "lng":116.56605
         },
         "uid":"4c7fbdcc27b5e96322022088",
         "detail":1,
         "name":"榆园小区",
         "address":"兴一路附近",
         "street_id":"4c7fbdcc27b5e96322022088"
      },
      {
         "location":{
            "lat":40.026213,
            "lng":116.563589
         },
         "uid":"732b019c47453ce8f02d8308",
         "detail":1,
         "name":"建兴公寓",
         "address":"北京市朝阳区",
         "street_id":"732b019c47453ce8f02d8308"
      },
      {
         "uid":"1a1cf71cd385cf1104026fb5",
         "detail":1,
         "location":{
            "lat":40.022954,
            "lng":116.560277
         },
         "name":"墅岛房车营地",
         "address":"北京市朝阳区东苇路"
      },
      {
         "uid":"be6394b00e63439131870a9e",
         "detail":0,
         "location":{
            "lat":40.014957,
            "lng":116.558696
         },
         "name":"长店小区西街",
         "address":"854路"
      },
      {
         "uid":"b1d895e1553d3cccfda7780e",
         "detail":0,
         "location":{
            "lat":40.016566,
            "lng":116.567906
         },
         "name":"长店小区东口",
         "address":"418路;418路区间;854路"
      }
   ]
}